{
"type": "FeatureCollection",
"name": "住宿服务",
"crs": { "type": "name", "properties": { "name": "urn:ogc:def:crs:OGC:1.3:CRS84" } },
"features": [
{ "type": "Feature", "properties": { "name": "假日酒店", "type": "住宿服务;宾馆酒店;四星级宾馆", "address": "西芯大道1号附1号成都高新皇冠假日酒店", "lng": 103.973196, "lat": 30.727981, "province": "四川省", "city": "成都市", "district": "郫县" }, "geometry": { "type": "Point", "coordinates": [ 103.973196, 30.727981 ] } },
{ "type": "Feature", "properties": { "name": "成都高新皇冠假日酒店", "type": "住宿服务;宾馆酒店;五星级宾馆", "address": "西芯大道1号", "lng": 103.973542, "lat": 30.728448, "province": "四川省", "city": "成都市", "district": "郫县" }, "geometry": { "type": "Point", "coordinates": [ 103.973542, 30.728448 ] } },
{ "type": "Feature", "properties": { "name": "8090酒店(保利新天地店)", "type": "住宿服务;宾馆酒店;宾馆酒店", "address": "高新西区百草路地铁A出口保利新天地1幢1单元45号", "lng": 103.975901, "lat": 30.731609, "province": "四川省", "city": "成都市", "district": "郫县" }, "geometry": { "type": "Point", "coordinates": [ 103.975901, 30.731609 ] } },
{ "type": "Feature", "properties": { "name": "明艳旅社", "type": "住宿服务;旅馆招待所;旅馆招待所", "address": "高新区天辰路晨风村53号", "lng": 103.972407, "lat": 30.73559, "province": "四川省", "city": "成都市", "district": "郫县" }, "geometry": { "type": "Point", "coordinates": [ 103.972407, 30.73559 ] } },
{ "type": "Feature", "properties": { "name": "成都loft小窝酒店公寓", "type": "住宿服务;住宿服务相关;住宿服务相关", "address": "百草路保利香槟1栋2单元", "lng": 103.975643, "lat": 30.731592, "province": "四川省", "city": "成都市", "district": "郫县" }, "geometry": { "type": "Point", "coordinates": [ 103.975643, 30.731592 ] } },
{ "type": "Feature", "properties": { "name": "鑫鑫住宿", "type": "住宿服务;旅馆招待所;旅馆招待所", "address": "天辰路252号", "lng": 103.974743, "lat": 30.736355, "province": "四川省", "city": "成都市", "district": "郫县" }, "geometry": { "type": "Point", "coordinates": [ 103.974743, 30.736355 ] } },
{ "type": "Feature", "properties": { "name": "郫县鑫馨旅馆", "type": "住宿服务;旅馆招待所;旅馆招待所", "address": "天辰路252号", "lng": 103.973739, "lat": 30.736707, "province": "四川省", "city": "成都市", "district": "郫县" }, "geometry": { "type": "Point", "coordinates": [ 103.973739, 30.736707 ] } },
{ "type": "Feature", "properties": { "name": "都舍酒店", "type": "住宿服务;宾馆酒店;宾馆酒店", "address": "天目路77号保利香槟国际15栋1单元", "lng": 103.975711, "lat": 30.735467, "province": "四川省", "city": "成都市", "district": "郫县" }, "geometry": { "type": "Point", "coordinates": [ 103.975711, 30.735467 ] } },
{ "type": "Feature", "properties": { "name": "诚信住宿", "type": "住宿服务;旅馆招待所;旅馆招待所", "address": "天辰路晨凤村105号", "lng": 103.972115, "lat": 30.736722, "province": "四川省", "city": "成都市", "district": "郫县" }, "geometry": { "type": "Point", "coordinates": [ 103.972115, 30.736722 ] } },
{ "type": "Feature", "properties": { "name": "加州住宿", "type": "住宿服务;旅馆招待所;旅馆招待所", "address": "合作街道晨风村22栋6单元", "lng": 103.971608, "lat": 30.73657, "province": "四川省", "city": "成都市", "district": "郫县" }, "geometry": { "type": "Point", "coordinates": [ 103.971608, 30.73657 ] } },
{ "type": "Feature", "properties": { "name": "喆·啡酒店(百草路)", "type": "住宿服务;宾馆酒店;宾馆酒店", "address": "百草路保利·香槟国际9栋1单元", "lng": 103.976457, "lat": 30.735625, "province": "四川省", "city": "成都市", "district": "郫县" }, "geometry": { "type": "Point", "coordinates": [ 103.976457, 30.735625 ] } },
{ "type": "Feature", "properties": { "name": "香槟假日酒店", "type": "住宿服务;宾馆酒店;四星级宾馆", "address": "天目路143号", "lng": 103.977757, "lat": 30.733544, "province": "四川省", "city": "成都市", "district": "郫县" }, "geometry": { "type": "Point", "coordinates": [ 103.977757, 30.733544 ] } },
{ "type": "Feature", "properties": { "name": "容贵酒店(成都百草路地铁站店)(原世嘉精品酒店)", "type": "住宿服务;宾馆酒店;三星级宾馆", "address": "天目路77号12栋1单元3层(保利新天地售楼部3层)", "lng": 103.977167, "lat": 30.732345, "province": "四川省", "city": "成都市", "district": "郫县" }, "geometry": { "type": "Point", "coordinates": [ 103.977167, 30.732345 ] } },
{ "type": "Feature", "properties": { "name": "成都情逸酒店公寓", "type": "住宿服务;旅馆招待所;旅馆招待所", "address": "高新西区天目路77号保利香槟国际9-2-407号(百草路地铁口)", "lng": 103.976825, "lat": 30.735133, "province": "四川省", "city": "成都市", "district": "郫县" }, "geometry": { "type": "Point", "coordinates": [ 103.976825, 30.735133 ] } },
{ "type": "Feature", "properties": { "name": "成都317旅行起点栈客栈", "type": "住宿服务;住宿服务相关;住宿服务相关", "address": "天目路保利新天地9-2-404号(实验外国语学校对面,地铁2号线百草路出口)", "lng": 103.978078, "lat": 30.73479, "province": "四川省", "city": "成都市", "district": "郫县" }, "geometry": { "type": "Point", "coordinates": [ 103.978078, 30.73479 ] } },
{ "type": "Feature", "properties": { "name": "成都loft小窝酒店公寓", "type": "住宿服务;旅馆招待所;旅馆招待所", "address": "天目路77号保利香槟国际1栋2单元", "lng": 103.976434, "lat": 30.732065, "province": "四川省", "city": "成都市", "district": "郫县" }, "geometry": { "type": "Point", "coordinates": [ 103.976434, 30.732065 ] } },
{ "type": "Feature", "properties": { "name": "速8酒店(成都高新西区百草路地铁站店)", "type": "住宿服务;宾馆酒店;经济型连锁酒店", "address": "天目路77号保利香槟国际1栋1单元", "lng": 103.97632, "lat": 30.73149, "province": "四川省", "city": "成都市", "district": "金牛区" }, "geometry": { "type": "Point", "coordinates": [ 103.97632, 30.73149 ] } },
{ "type": "Feature", "properties": { "name": "成都爱画精品公寓", "type": "住宿服务;宾馆酒店;宾馆酒店", "address": "天目路77号保利新天地12栋2单元6楼", "lng": 103.977018, "lat": 30.732485, "province": "四川省", "city": "成都市", "district": "郫县" }, "geometry": { "type": "Point", "coordinates": [ 103.977018, 30.732485 ] } },
{ "type": "Feature", "properties": { "name": "渝博主题酒店(百草路地铁站店)", "type": "住宿服务;宾馆酒店;宾馆酒店", "address": "百草路105号", "lng": 103.976504, "lat": 30.735577, "province": "四川省", "city": "成都市", "district": "郫县" }, "geometry": { "type": "Point", "coordinates": [ 103.976504, 30.735577 ] } },
{ "type": "Feature", "properties": { "name": "8090精品酒店(成都百草路地铁站店)", "type": "住宿服务;宾馆酒店;宾馆酒店", "address": "高新西区天目路77号", "lng": 103.977883, "lat": 30.733132, "province": "四川省", "city": "成都市", "district": "郫县" }, "geometry": { "type": "Point", "coordinates": [ 103.977883, 30.733132 ] } },
{ "type": "Feature", "properties": { "name": "成都咖啡主题酒店", "type": "住宿服务;住宿服务相关;住宿服务相关", "address": "高新西区百草路105号(保利新天地9栋)(近天润路)", "lng": 103.976325, "lat": 30.735366, "province": "四川省", "city": "成都市", "district": "郫县" }, "geometry": { "type": "Point", "coordinates": [ 103.976325, 30.735366 ] } },
{ "type": "Feature", "properties": { "name": "百草精品LOFT公寓(成都百草路地铁店)", "type": "住宿服务;住宿服务相关;住宿服务相关", "address": "天目路77号保利新天地15-2-9号(地铁2号线百草路A出、茶店子客运站、犀浦、电子科技大学成都学院)", "lng": 103.978164, "lat": 30.733553, "province": "四川省", "city": "成都市", "district": "郫县" }, "geometry": { "type": "Point", "coordinates": [ 103.978164, 30.733553 ] } },
{ "type": "Feature", "properties": { "name": "成都灵灵住宿", "type": "住宿服务;住宿服务相关;住宿服务相关", "address": "成都外语学院两河村和心路25附93号", "lng": 103.978922, "lat": 30.735944, "province": "四川省", "city": "成都市", "district": "郫县" }, "geometry": { "type": "Point", "coordinates": [ 103.978922, 30.735944 ] } },
{ "type": "Feature", "properties": { "name": "成都甜甜住宿", "type": "住宿服务;住宿服务相关;住宿服务相关", "address": "外语学院两河村和心路25号附12", "lng": 103.98023, "lat": 30.735608, "province": "四川省", "city": "成都市", "district": "郫县" }, "geometry": { "type": "Point", "coordinates": [ 103.98023, 30.735608 ] } },
{ "type": "Feature", "properties": { "name": "成都香槟豪华公寓", "type": "住宿服务;住宿服务相关;住宿服务相关", "address": "高新西区天目路77号香槟国际12栋2单元(保利销售中心)", "lng": 103.977285, "lat": 30.732404, "province": "四川省", "city": "成都市", "district": "郫县" }, "geometry": { "type": "Point", "coordinates": [ 103.977285, 30.732404 ] } },
{ "type": "Feature", "properties": { "name": "友谊住宿", "type": "住宿服务;旅馆招待所;旅馆招待所", "address": "和心路29附13附近", "lng": 103.979627, "lat": 30.735507, "province": "四川省", "city": "成都市", "district": "郫县" }, "geometry": { "type": "Point", "coordinates": [ 103.979627, 30.735507 ] } },
{ "type": "Feature", "properties": { "name": "胖哥住宿", "type": "住宿服务;旅馆招待所;旅馆招待所", "address": "和心路25附5-7附近", "lng": 103.979256, "lat": 30.734909, "province": "四川省", "city": "成都市", "district": "郫县" }, "geometry": { "type": "Point", "coordinates": [ 103.979256, 30.734909 ] } },
{ "type": "Feature", "properties": { "name": "涛涛住宿(和心路)", "type": "住宿服务;旅馆招待所;旅馆招待所", "address": "和心路25附16", "lng": 103.979558, "lat": 30.735343, "province": "四川省", "city": "成都市", "district": "郫县" }, "geometry": { "type": "Point", "coordinates": [ 103.979558, 30.735343 ] } },
{ "type": "Feature", "properties": { "name": "茶水刘言住宿", "type": "住宿服务;旅馆招待所;旅馆招待所", "address": "和心路25附20-24", "lng": 103.979483, "lat": 30.735444, "province": "四川省", "city": "成都市", "district": "郫县" }, "geometry": { "type": "Point", "coordinates": [ 103.979483, 30.735444 ] } },
{ "type": "Feature", "properties": { "name": "老兵住宿(和心路)", "type": "住宿服务;旅馆招待所;旅馆招待所", "address": "和心路29附14", "lng": 103.979991, "lat": 30.735669, "province": "四川省", "city": "成都市", "district": "郫县" }, "geometry": { "type": "Point", "coordinates": [ 103.979991, 30.735669 ] } },
{ "type": "Feature", "properties": { "name": "巴斯顿酒店(欢乐谷店)", "type": "住宿服务;宾馆酒店;三星级宾馆", "address": "盛兴路256号D区17栋3层(工商银行楼上)", "lng": 104.012996, "lat": 30.730915, "province": "四川省", "city": "成都市", "district": "金牛区" }, "geometry": { "type": "Point", "coordinates": [ 104.012996, 30.730915 ] } },
{ "type": "Feature", "properties": { "name": "布丁酒店(成都欢乐谷万达七中店)", "type": "住宿服务;宾馆酒店;经济型连锁酒店", "address": "盛金路139号", "lng": 104.015142, "lat": 30.72973, "province": "四川省", "city": "成都市", "district": "金牛区" }, "geometry": { "type": "Point", "coordinates": [ 104.015142, 30.72973 ] } },
{ "type": "Feature", "properties": { "name": "成都西线酒店欢乐谷店", "type": "住宿服务;宾馆酒店;宾馆酒店", "address": "侯家桥街124号三楼", "lng": 104.009924, "lat": 30.736301, "province": "四川省", "city": "成都市", "district": "金牛区" }, "geometry": { "type": "Point", "coordinates": [ 104.009924, 30.736301 ] } },
{ "type": "Feature", "properties": { "name": "成都府河星城日租公寓", "type": "住宿服务;住宿服务相关;住宿服务相关", "address": "西华大道608号府河星城", "lng": 104.025352, "lat": 30.728182, "province": "四川省", "city": "成都市", "district": "金牛区" }, "geometry": { "type": "Point", "coordinates": [ 104.025352, 30.728182 ] } },
{ "type": "Feature", "properties": { "name": "小被窝爱家公寓", "type": "住宿服务;宾馆酒店;宾馆酒店", "address": "府河丽景小区", "lng": 104.026018, "lat": 30.731465, "province": "四川省", "city": "成都市", "district": "金牛区" }, "geometry": { "type": "Point", "coordinates": [ 104.026018, 30.731465 ] } },
{ "type": "Feature", "properties": { "name": "608商务酒店", "type": "住宿服务;宾馆酒店;宾馆酒店", "address": "西华大道608号府河星城盛玛特超市2层", "lng": 104.028942, "lat": 30.730591, "province": "四川省", "city": "成都市", "district": "金牛区" }, "geometry": { "type": "Point", "coordinates": [ 104.028942, 30.730591 ] } },
{ "type": "Feature", "properties": { "name": "成都温馨港湾精品公寓(欢乐谷店)", "type": "住宿服务;旅馆招待所;旅馆招待所", "address": "沙西线欢乐谷旁府河星辰55栋103室", "lng": 104.027021, "lat": 30.729076, "province": "四川省", "city": "成都市", "district": "金牛区" }, "geometry": { "type": "Point", "coordinates": [ 104.027021, 30.729076 ] } },
{ "type": "Feature", "properties": { "name": "成都佳佳青年旅舍", "type": "住宿服务;住宿服务相关;住宿服务相关", "address": "西华大道中段608号府河星城100栋17楼1704号", "lng": 104.029529, "lat": 30.727, "province": "四川省", "city": "成都市", "district": "金牛区" }, "geometry": { "type": "Point", "coordinates": [ 104.029529, 30.727 ] } },
{ "type": "Feature", "properties": { "name": "成都欢乐谷全景公寓", "type": "住宿服务;住宿服务相关;住宿服务相关", "address": "西华大道府河星城南二门97栋", "lng": 104.027537, "lat": 30.728311, "province": "四川省", "city": "成都市", "district": "金牛区" }, "geometry": { "type": "Point", "coordinates": [ 104.027537, 30.728311 ] } },
{ "type": "Feature", "properties": { "name": "7天酒店(成都欢乐谷店)", "type": "住宿服务;宾馆酒店;经济型连锁酒店", "address": "金丰路6号量力商务大厦1层、4-6层", "lng": 104.049675, "lat": 30.729884, "province": "四川省", "city": "成都市", "district": "金牛区" }, "geometry": { "type": "Point", "coordinates": [ 104.049675, 30.729884 ] } },
{ "type": "Feature", "properties": { "name": "温馨日租公寓", "type": "住宿服务;旅馆招待所;旅馆招待所", "address": "人民北路3段万达广场", "lng": 104.054933, "lat": 30.729398, "province": "四川省", "city": "成都市", "district": "金牛区" }, "geometry": { "type": "Point", "coordinates": [ 104.054933, 30.729398 ] } },
{ "type": "Feature", "properties": { "name": "四川建设机械(集团)股份有限公司招待所", "type": "住宿服务;旅馆招待所;旅馆招待所", "address": "古柏路54号附41号", "lng": 104.054872, "lat": 30.733026, "province": "四川省", "city": "成都市", "district": "金牛区" }, "geometry": { "type": "Point", "coordinates": [ 104.054872, 30.733026 ] } },
{ "type": "Feature", "properties": { "name": "吉雲酒店", "type": "住宿服务;宾馆酒店;宾馆酒店", "address": "沙河源朗润路239号量力钢材城C区正大门对面", "lng": 104.058605, "lat": 30.731935, "province": "四川省", "city": "成都市", "district": "金牛区" }, "geometry": { "type": "Point", "coordinates": [ 104.058605, 30.731935 ] } },
{ "type": "Feature", "properties": { "name": "丽泉休闲庄", "type": "住宿服务;宾馆酒店;宾馆酒店|体育休闲服务;休闲场所;休闲场所", "address": "朗润路189号4层", "lng": 104.062127, "lat": 30.730699, "province": "四川省", "city": "成都市", "district": "金牛区" }, "geometry": { "type": "Point", "coordinates": [ 104.062127, 30.730699 ] } },
{ "type": "Feature", "properties": { "name": "新阳光住宿", "type": "住宿服务;旅馆招待所;旅馆招待所", "address": "沙河源街道川建路与灵润路交叉口西100米", "lng": 104.06384, "lat": 30.732964, "province": "四川省", "city": "成都市", "district": "金牛区" }, "geometry": { "type": "Point", "coordinates": [ 104.06384, 30.732964 ] } },
{ "type": "Feature", "properties": { "name": "成都西岭雪山风雅农家乐", "type": "住宿服务;住宿服务相关;住宿服务相关", "address": "西岭雪山后山", "lng": 104.105581, "lat": 30.734839, "province": "四川省", "city": "成都市", "district": "金牛区" }, "geometry": { "type": "Point", "coordinates": [ 104.105581, 30.734839 ] } },
{ "type": "Feature", "properties": { "name": "成都成华平安住宿", "type": "住宿服务;住宿服务相关;住宿服务相关", "address": "蜀陵路18号(近将军碑路)", "lng": 104.109612, "lat": 30.728598, "province": "四川省", "city": "成都市", "district": "成华区" }, "geometry": { "type": "Point", "coordinates": [ 104.109612, 30.728598 ] } },
{ "type": "Feature", "properties": { "name": "成都西北停车场招待所", "type": "住宿服务;住宿服务相关;住宿服务相关", "address": "青龙乡将军村2组蜀陵路54号", "lng": 104.110973, "lat": 30.728851, "province": "四川省", "city": "成都市", "district": "成华区" }, "geometry": { "type": "Point", "coordinates": [ 104.110973, 30.728851 ] } },
{ "type": "Feature", "properties": { "name": "如意客栈(蜀陵路)", "type": "住宿服务;旅馆招待所;旅馆招待所", "address": "蓉都大道将军碑路与蜀陵路交叉口东南50米", "lng": 104.109565, "lat": 30.72876, "province": "四川省", "city": "成都市", "district": "成华区" }, "geometry": { "type": "Point", "coordinates": [ 104.109565, 30.72876 ] } },
{ "type": "Feature", "properties": { "name": "伊顿招待所", "type": "住宿服务;旅馆招待所;旅馆招待所", "address": "蓉都大道将军碑路与蜀陵路交叉口东100米", "lng": 104.110134, "lat": 30.729058, "province": "四川省", "city": "成都市", "district": "成华区" }, "geometry": { "type": "Point", "coordinates": [ 104.110134, 30.729058 ] } },
{ "type": "Feature", "properties": { "name": "祥和招待所", "type": "住宿服务;旅馆招待所;旅馆招待所", "address": "蓉都大道将军碑路280号", "lng": 104.109825, "lat": 30.729507, "province": "四川省", "city": "成都市", "district": "金牛区" }, "geometry": { "type": "Point", "coordinates": [ 104.109825, 30.729507 ] } },
{ "type": "Feature", "properties": { "name": "佳好旅馆(蜀陵路)", "type": "住宿服务;旅馆招待所;旅馆招待所", "address": "蓉都大道将军碑路与蜀陵路交叉口东南150米", "lng": 104.110501, "lat": 30.728483, "province": "四川省", "city": "成都市", "district": "成华区" }, "geometry": { "type": "Point", "coordinates": [ 104.110501, 30.728483 ] } },
{ "type": "Feature", "properties": { "name": "遐龄居商务宾馆", "type": "住宿服务;宾馆酒店;宾馆酒店", "address": "熊猫大道1333号附2号", "lng": 104.141226, "lat": 30.731919, "province": "四川省", "city": "成都市", "district": "成华区" }, "geometry": { "type": "Point", "coordinates": [ 104.141226, 30.731919 ] } },
{ "type": "Feature", "properties": { "name": "成都红洋旅馆", "type": "住宿服务;旅馆招待所;旅馆招待所", "address": "熊猫大道一里轩1143号", "lng": 104.142131, "lat": 30.73191, "province": "四川省", "city": "成都市", "district": "成华区" }, "geometry": { "type": "Point", "coordinates": [ 104.142131, 30.73191 ] } },
{ "type": "Feature", "properties": { "name": "星瑞仁家酒店", "type": "住宿服务;宾馆酒店;宾馆酒店", "address": "蜀西路58号精城国际2号楼", "lng": 103.984597, "lat": 30.719062, "province": "四川省", "city": "成都市", "district": "金牛区" }, "geometry": { "type": "Point", "coordinates": [ 103.984597, 30.719062 ] } },
{ "type": "Feature", "properties": { "name": "子规西庭酒店", "type": "住宿服务;宾馆酒店;四星级宾馆", "address": "汇川街166号2栋", "lng": 103.98165, "lat": 30.719828, "province": "四川省", "city": "成都市", "district": "金牛区" }, "geometry": { "type": "Point", "coordinates": [ 103.98165, 30.719828 ] } },
{ "type": "Feature", "properties": { "name": "星瑞美丽华酒店", "type": "住宿服务;宾馆酒店;四星级宾馆", "address": "汇川街388号", "lng": 103.978804, "lat": 30.723733, "province": "四川省", "city": "成都市", "district": "金牛区" }, "geometry": { "type": "Point", "coordinates": [ 103.978804, 30.723733 ] } },
{ "type": "Feature", "properties": { "name": "成都达客酒店式公寓(原达客精品公寓)", "type": "住宿服务;旅馆招待所;旅馆招待所", "address": "中海国际社区蓝岸街59号(橙郡二期)", "lng": 103.978902, "lat": 30.717905, "province": "四川省", "city": "成都市", "district": "郫县" }, "geometry": { "type": "Point", "coordinates": [ 103.978902, 30.717905 ] } },
{ "type": "Feature", "properties": { "name": "成都汇西生态园酒店", "type": "住宿服务;住宿服务相关;住宿服务相关", "address": "蜀西路66号", "lng": 103.981716, "lat": 30.722001, "province": "四川省", "city": "成都市", "district": "金牛区" }, "geometry": { "type": "Point", "coordinates": [ 103.981716, 30.722001 ] } },
{ "type": "Feature", "properties": { "name": "成都美美家家居精品酒店", "type": "住宿服务;住宿服务相关;住宿服务相关", "address": "高新西区中海国际社区橙郡一期", "lng": 103.980325, "lat": 30.720047, "province": "四川省", "city": "成都市", "district": "金牛区" }, "geometry": { "type": "Point", "coordinates": [ 103.980325, 30.720047 ] } },
{ "type": "Feature", "properties": { "name": "成都美美家家居精品连锁酒店", "type": "住宿服务;住宿服务相关;住宿服务相关", "address": "蓝岸街59号", "lng": 103.97763, "lat": 30.718298, "province": "四川省", "city": "成都市", "district": "郫县" }, "geometry": { "type": "Point", "coordinates": [ 103.97763, 30.718298 ] } },
{ "type": "Feature", "properties": { "name": "达客dock家庭公寓刘兰丽", "type": "住宿服务;住宿服务相关;住宿服务相关", "address": "高新西区中海国际社区蓝岸街59号(橙郡二期)", "lng": 103.97711, "lat": 30.718748, "province": "四川省", "city": "成都市", "district": "郫县" }, "geometry": { "type": "Point", "coordinates": [ 103.97711, 30.718748 ] } },
{ "type": "Feature", "properties": { "name": "致信公寓(成都中海一店)", "type": "住宿服务;住宿服务相关;住宿服务相关", "address": "汇川街13号2楼", "lng": 103.979201, "lat": 30.723368, "province": "四川省", "city": "成都市", "district": "金牛区" }, "geometry": { "type": "Point", "coordinates": [ 103.979201, 30.723368 ] } },
{ "type": "Feature", "properties": { "name": "染客店", "type": "住宿服务;住宿服务相关;住宿服务相关", "address": "高新西区汇川街300号", "lng": 103.978966, "lat": 30.722176, "province": "四川省", "city": "成都市", "district": "金牛区" }, "geometry": { "type": "Point", "coordinates": [ 103.978966, 30.722176 ] } },
{ "type": "Feature", "properties": { "name": "成都中国青年旅行社(汇川街)", "type": "住宿服务;旅馆招待所;青年旅舍|生活服务;旅行社;旅行社", "address": "中海国际社区汇川街188号", "lng": 103.981062, "lat": 30.719981, "province": "四川省", "city": "成都市", "district": "金牛区" }, "geometry": { "type": "Point", "coordinates": [ 103.981062, 30.719981 ] } },
{ "type": "Feature", "properties": { "name": "金满地酒店", "type": "住宿服务;宾馆酒店;宾馆酒店", "address": "金科北路48号2楼", "lng": 104.004707, "lat": 30.720304, "province": "四川省", "city": "成都市", "district": "金牛区" }, "geometry": { "type": "Point", "coordinates": [ 104.004707, 30.720304 ] } },
{ "type": "Feature", "properties": { "name": "大禹宾馆(金科中路)", "type": "住宿服务;宾馆酒店;宾馆酒店", "address": "土桥金科中路103号", "lng": 104.00344, "lat": 30.719026, "province": "四川省", "city": "成都市", "district": "金牛区" }, "geometry": { "type": "Point", "coordinates": [ 104.00344, 30.719026 ] } },
{ "type": "Feature", "properties": { "name": "诺亚方舟酒店(羊犀店)", "type": "住宿服务;宾馆酒店;宾馆酒店", "address": "金科南路169号", "lng": 103.999801, "lat": 30.718116, "province": "四川省", "city": "成都市", "district": "金牛区" }, "geometry": { "type": "Point", "coordinates": [ 103.999801, 30.718116 ] } },
{ "type": "Feature", "properties": { "name": "成都思迈尔锦励酒店", "type": "住宿服务;宾馆酒店;三星级宾馆", "address": "金泉街道办金科北路166号", "lng": 104.007836, "lat": 30.72193, "province": "四川省", "city": "成都市", "district": "金牛区" }, "geometry": { "type": "Point", "coordinates": [ 104.007836, 30.72193 ] } },
{ "type": "Feature", "properties": { "name": "爱佳商务酒店", "type": "住宿服务;宾馆酒店;宾馆酒店", "address": "金泉路37号", "lng": 104.010877, "lat": 30.719747, "province": "四川省", "city": "成都市", "district": "金牛区" }, "geometry": { "type": "Point", "coordinates": [ 104.010877, 30.719747 ] } },
{ "type": "Feature", "properties": { "name": "金周旅馆", "type": "住宿服务;旅馆招待所;旅馆招待所", "address": "金周路43号", "lng": 104.007385, "lat": 30.724841, "province": "四川省", "city": "成都市", "district": "金牛区" }, "geometry": { "type": "Point", "coordinates": [ 104.007385, 30.724841 ] } },
{ "type": "Feature", "properties": { "name": "爱佳酒店茶", "type": "住宿服务;住宿服务相关;住宿服务相关", "address": "金泉路37号附近", "lng": 104.01083, "lat": 30.719898, "province": "四川省", "city": "成都市", "district": "金牛区" }, "geometry": { "type": "Point", "coordinates": [ 104.01083, 30.719898 ] } },
{ "type": "Feature", "properties": { "name": "蓉鑫旅店", "type": "住宿服务;旅馆招待所;旅馆招待所", "address": "金泉路54号蓉鑫旅店", "lng": 104.010502, "lat": 30.721313, "province": "四川省", "city": "成都市", "district": "金牛区" }, "geometry": { "type": "Point", "coordinates": [ 104.010502, 30.721313 ] } },
{ "type": "Feature", "properties": { "name": "东方会所", "type": "体育休闲服务;休闲场所;休闲场所|住宿服务;住宿服务相关;住宿服务相关", "address": "金青路与华严路交叉口向东400米路北", "lng": 104.021403, "lat": 30.724785, "province": "四川省", "city": "成都市", "district": "金牛区" }, "geometry": { "type": "Point", "coordinates": [ 104.021403, 30.724785 ] } },
{ "type": "Feature", "properties": { "name": "成都尚帆酒店欢乐谷店", "type": "住宿服务;宾馆酒店;宾馆酒店", "address": "西华街纯水岸(北区)华侨城生活广场(欢乐谷4号门斜对面)", "lng": 104.028603, "lat": 30.721098, "province": "四川省", "city": "成都市", "district": "金牛区" }, "geometry": { "type": "Point", "coordinates": [ 104.028603, 30.721098 ] } },
{ "type": "Feature", "properties": { "name": "成都欢乐谷情侣公寓", "type": "住宿服务;住宿服务相关;住宿服务相关", "address": "西华大道608号府河星城小区馨苑103栋(府河星城小区南2门南50米)", "lng": 104.028992, "lat": 30.726474, "province": "四川省", "city": "成都市", "district": "金牛区" }, "geometry": { "type": "Point", "coordinates": [ 104.028992, 30.726474 ] } },
{ "type": "Feature", "properties": { "name": "金府华美达大酒店", "type": "住宿服务;宾馆酒店;五星级宾馆", "address": "金府路799号(成都金府机电城旁)", "lng": 104.043862, "lat": 30.717031, "province": "四川省", "city": "成都市", "district": "金牛区" }, "geometry": { "type": "Point", "coordinates": [ 104.043862, 30.717031 ] } },
{ "type": "Feature", "properties": { "name": "昇华台大酒店", "type": "住宿服务;宾馆酒店;四星级宾馆", "address": "金府路833号", "lng": 104.044225, "lat": 30.717986, "province": "四川省", "city": "成都市", "district": "金牛区" }, "geometry": { "type": "Point", "coordinates": [ 104.044225, 30.717986 ] } },
{ "type": "Feature", "properties": { "name": "爱悦酒店", "type": "住宿服务;宾馆酒店;三星级宾馆", "address": "金府路星汉北路28号", "lng": 104.043668, "lat": 30.718119, "province": "四川省", "city": "成都市", "district": "金牛区" }, "geometry": { "type": "Point", "coordinates": [ 104.043668, 30.718119 ] } },
{ "type": "Feature", "properties": { "name": "城市客栈酒店(成都欢乐谷店)", "type": "住宿服务;宾馆酒店;经济型连锁酒店|餐饮服务;中餐厅;中餐厅", "address": "西华大道6号", "lng": 104.036964, "lat": 30.719683, "province": "四川省", "city": "成都市", "district": "金牛区" }, "geometry": { "type": "Point", "coordinates": [ 104.036964, 30.719683 ] } },
{ "type": "Feature", "properties": { "name": "汉庭酒店(成都金府灯具城店)", "type": "住宿服务;宾馆酒店;经济型连锁酒店", "address": "中环路金府路段与星汉北路交叉口北100米", "lng": 104.044622, "lat": 30.717979, "province": "四川省", "city": "成都市", "district": "金牛区" }, "geometry": { "type": "Point", "coordinates": [ 104.044622, 30.717979 ] } },
{ "type": "Feature", "properties": { "name": "曻华台酒店", "type": "住宿服务;宾馆酒店;宾馆酒店", "address": "九里堤街道金府路833号", "lng": 104.044312, "lat": 30.717564, "province": "四川省", "city": "成都市", "district": "金牛区" }, "geometry": { "type": "Point", "coordinates": [ 104.044312, 30.717564 ] } },
{ "type": "Feature", "properties": { "name": "欢乐印象", "type": "住宿服务;宾馆酒店;经济型连锁酒店", "address": "新泉路33号", "lng": 104.04759, "lat": 30.71732, "province": "四川省", "city": "成都市", "district": "金牛区" }, "geometry": { "type": "Point", "coordinates": [ 104.04759, 30.71732 ] } },
{ "type": "Feature", "properties": { "name": "宜加商务酒店", "type": "住宿服务;宾馆酒店;宾馆酒店", "address": "泉水东路2号附1号", "lng": 104.062802, "lat": 30.722749, "province": "四川省", "city": "成都市", "district": "金牛区" }, "geometry": { "type": "Point", "coordinates": [ 104.062802, 30.722749 ] } },
{ "type": "Feature", "properties": { "name": "沁心居酒店", "type": "住宿服务;宾馆酒店;宾馆酒店", "address": "蓉北商贸大道2段-199号-附5", "lng": 104.05827, "lat": 30.721442, "province": "四川省", "city": "成都市", "district": "金牛区" }, "geometry": { "type": "Point", "coordinates": [ 104.05827, 30.721442 ] } },
{ "type": "Feature", "properties": { "name": "北新酒店", "type": "住宿服务;宾馆酒店;宾馆酒店", "address": "王贾路22号", "lng": 104.06885, "lat": 30.719726, "province": "四川省", "city": "成都市", "district": "金牛区" }, "geometry": { "type": "Point", "coordinates": [ 104.06885, 30.719726 ] } },
{ "type": "Feature", "properties": { "name": "成都琥珀酒店(红星美凯龙店)", "type": "住宿服务;宾馆酒店;宾馆酒店", "address": "凤凰立交红星美凯龙4D栋6楼(近龙湖北城天街)", "lng": 104.077405, "lat": 30.721656, "province": "四川省", "city": "成都市", "district": "金牛区" }, "geometry": { "type": "Point", "coordinates": [ 104.077405, 30.721656 ] } },
{ "type": "Feature", "properties": { "name": "成都琥珀阳光酒店", "type": "住宿服务;住宿服务相关;住宿服务相关", "address": "凤凰立交红星美凯龙D区6楼", "lng": 104.077012, "lat": 30.72153, "province": "四川省", "city": "成都市", "district": "金牛区" }, "geometry": { "type": "Point", "coordinates": [ 104.077012, 30.72153 ] } },
{ "type": "Feature", "properties": { "name": "金科·圣嘉公寓酒店(中心店)", "type": "住宿服务;宾馆酒店;四星级宾馆", "address": "荆翠西路118号", "lng": 104.103043, "lat": 30.71735, "province": "四川省", "city": "成都市", "district": "成华区" }, "geometry": { "type": "Point", "coordinates": [ 104.103043, 30.71735 ] } },
{ "type": "Feature", "properties": { "name": "成都易住酒店(川陕立交店)", "type": "住宿服务;宾馆酒店;宾馆酒店", "address": "荆翠西路2号金科中心8栋4楼", "lng": 104.103505, "lat": 30.717869, "province": "四川省", "city": "成都市", "district": "成华区" }, "geometry": { "type": "Point", "coordinates": [ 104.103505, 30.717869 ] } },
{ "type": "Feature", "properties": { "name": "宜必思酒店", "type": "住宿服务;宾馆酒店;经济型连锁酒店", "address": "荆翠西路2号附近", "lng": 104.103811, "lat": 30.717404, "province": "四川省", "city": "成都市", "district": "成华区" }, "geometry": { "type": "Point", "coordinates": [ 104.103811, 30.717404 ] } },
{ "type": "Feature", "properties": { "name": "瑞喜国际酒店", "type": "住宿服务;宾馆酒店;宾馆酒店", "address": "川陕立交金科中心6栋", "lng": 104.10381, "lat": 30.717406, "province": "四川省", "city": "成都市", "district": "成华区" }, "geometry": { "type": "Point", "coordinates": [ 104.10381, 30.717406 ] } },
{ "type": "Feature", "properties": { "name": "FUNX青年社区", "type": "住宿服务;旅馆招待所;青年旅舍", "address": "金科中心6栋15层", "lng": 104.10302, "lat": 30.717806, "province": "四川省", "city": "成都市", "district": "成华区" }, "geometry": { "type": "Point", "coordinates": [ 104.10302, 30.717806 ] } },
{ "type": "Feature", "properties": { "name": "成都瑞喜国际酒店筹备处", "type": "住宿服务;住宿服务相关;住宿服务相关", "address": "荆翠南一街与荆翠西路交叉口西北150米", "lng": 104.1026, "lat": 30.717523, "province": "四川省", "city": "成都市", "district": "成华区" }, "geometry": { "type": "Point", "coordinates": [ 104.1026, 30.717523 ] } },
{ "type": "Feature", "properties": { "name": "平安住宿(熊猫大道)", "type": "住宿服务;宾馆酒店;宾馆酒店", "address": "熊猫大道北50米", "lng": 104.105062, "lat": 30.725986, "province": "四川省", "city": "成都市", "district": "成华区" }, "geometry": { "type": "Point", "coordinates": [ 104.105062, 30.725986 ] } },
{ "type": "Feature", "properties": { "name": "鑫达商务宾馆(熊猫大道)", "type": "住宿服务;宾馆酒店;宾馆酒店", "address": "青龙街道熊猫大道白莲桥", "lng": 104.126424, "lat": 30.722033, "province": "四川省", "city": "成都市", "district": "成华区" }, "geometry": { "type": "Point", "coordinates": [ 104.126424, 30.722033 ] } },
{ "type": "Feature", "properties": { "name": "黄泥巴", "type": "住宿服务;宾馆酒店;宾馆酒店", "address": "木兰镇", "lng": 104.182798, "lat": 30.717638, "province": "四川省", "city": "成都市", "district": "成华区" }, "geometry": { "type": "Point", "coordinates": [ 104.182798, 30.717638 ] } },
{ "type": "Feature", "properties": { "name": "雅兰酒店", "type": "住宿服务;宾馆酒店;四星级宾馆", "address": "两河路中国小镇A区6幢", "lng": 103.978221, "lat": 30.707423, "province": "四川省", "city": "成都市", "district": "金牛区" }, "geometry": { "type": "Point", "coordinates": [ 103.978221, 30.707423 ] } },
{ "type": "Feature", "properties": { "name": "瑞河酒店", "type": "住宿服务;宾馆酒店;五星级宾馆", "address": "两河路中国小镇A区555号附57号", "lng": 103.979163, "lat": 30.707908, "province": "四川省", "city": "成都市", "district": "金牛区" }, "geometry": { "type": "Point", "coordinates": [ 103.979163, 30.707908 ] } },
{ "type": "Feature", "properties": { "name": "蜀景印象酒店", "type": "住宿服务;宾馆酒店;宾馆酒店", "address": "两河路中国小镇A区555附69号", "lng": 103.977965, "lat": 30.707328, "province": "四川省", "city": "成都市", "district": "金牛区" }, "geometry": { "type": "Point", "coordinates": [ 103.977965, 30.707328 ] } },
{ "type": "Feature", "properties": { "name": "成都好时年酒店", "type": "住宿服务;住宿服务相关;住宿服务相关", "address": "两河路清淳家园中国小镇a区555号付62号", "lng": 103.9788, "lat": 30.70765, "province": "四川省", "city": "成都市", "district": "金牛区" }, "geometry": { "type": "Point", "coordinates": [ 103.9788, 30.70765 ] } },
{ "type": "Feature", "properties": { "name": "清醇旅馆", "type": "住宿服务;旅馆招待所;旅馆招待所", "address": "清淳家园中国小镇A区555号附65号", "lng": 103.97911, "lat": 30.707129, "province": "四川省", "city": "成都市", "district": "金牛区" }, "geometry": { "type": "Point", "coordinates": [ 103.97911, 30.707129 ] } },
{ "type": "Feature", "properties": { "name": "成都仕和印象酒店", "type": "住宿服务;宾馆酒店;宾馆酒店", "address": "金泉街道瑞河酒店", "lng": 103.979499, "lat": 30.707688, "province": "四川省", "city": "成都市", "district": "金牛区" }, "geometry": { "type": "Point", "coordinates": [ 103.979499, 30.707688 ] } },
{ "type": "Feature", "properties": { "name": "瑞福源酒店", "type": "住宿服务;宾馆酒店;宾馆酒店", "address": "黄金东一路万裕生活广场B座5层", "lng": 103.993682, "lat": 30.708644, "province": "四川省", "city": "成都市", "district": "金牛区" }, "geometry": { "type": "Point", "coordinates": [ 103.993682, 30.708644 ] } },
{ "type": "Feature", "properties": { "name": "帝宜酒店", "type": "住宿服务;宾馆酒店;宾馆酒店", "address": "黄金东一路222号万裕生活广场A座2楼", "lng": 103.993256, "lat": 30.708975, "province": "四川省", "city": "成都市", "district": "金牛区" }, "geometry": { "type": "Point", "coordinates": [ 103.993256, 30.708975 ] } },
{ "type": "Feature", "properties": { "name": "全季酒店(盛大国际店)", "type": "住宿服务;宾馆酒店;经济型连锁酒店", "address": "蜀西路46号盛大国际7栋", "lng": 103.989997, "lat": 30.715442, "province": "四川省", "city": "成都市", "district": "金牛区" }, "geometry": { "type": "Point", "coordinates": [ 103.989997, 30.715442 ] } },
{ "type": "Feature", "properties": { "name": "成都摄影家之屋", "type": "住宿服务;住宿服务相关;住宿服务相关", "address": "蜀西南三路19号8栋2单元907号(近蜀西路)", "lng": 103.994837, "lat": 30.708544, "province": "四川省", "city": "成都市", "district": "金牛区" }, "geometry": { "type": "Point", "coordinates": [ 103.994837, 30.708544 ] } },
{ "type": "Feature", "properties": { "name": "黄龙溪山门豆花庄客栈", "type": "住宿服务;住宿服务相关;住宿服务相关", "address": "黄龙溪古镇黄金路21-23号", "lng": 103.993424, "lat": 30.710251, "province": "四川省", "city": "成都市", "district": "金牛区" }, "geometry": { "type": "Point", "coordinates": [ 103.993424, 30.710251 ] } },
{ "type": "Feature", "properties": { "name": "成都布丁酒店西二环蜀西路店", "type": "住宿服务;宾馆酒店;经济型连锁酒店", "address": "蜀西路与黄金路交叉口西北100米", "lng": 103.993875, "lat": 30.712048, "province": "四川省", "city": "成都市", "district": "金牛区" }, "geometry": { "type": "Point", "coordinates": [ 103.993875, 30.712048 ] } },
{ "type": "Feature", "properties": { "name": "成都金牛智选假日酒店", "type": "住宿服务;宾馆酒店;宾馆酒店", "address": "羊西立交出城方向下穿隧道右转盛大国际8栋1单元", "lng": 103.990201, "lat": 30.716249, "province": "四川省", "city": "成都市", "district": "金牛区" }, "geometry": { "type": "Point", "coordinates": [ 103.990201, 30.716249 ] } },
{ "type": "Feature", "properties": { "name": "濠江·博力国际酒店", "type": "住宿服务;宾馆酒店;四星级宾馆", "address": "迎宾大道438号", "lng": 104.003517, "lat": 30.708981, "province": "四川省", "city": "成都市", "district": "金牛区" }, "geometry": { "type": "Point", "coordinates": [ 104.003517, 30.708981 ] } },
{ "type": "Feature", "properties": { "name": "郦湾国际酒店", "type": "住宿服务;宾馆酒店;五星级宾馆", "address": "迎宾大道兴盛西路8号", "lng": 103.998974, "lat": 30.712983, "province": "四川省", "city": "成都市", "district": "金牛区" }, "geometry": { "type": "Point", "coordinates": [ 103.998974, 30.712983 ] } },
{ "type": "Feature", "properties": { "name": "成都尊悦豪生酒店", "type": "住宿服务;宾馆酒店;五星级宾馆", "address": "迎宾大道528号", "lng": 104.000974, "lat": 30.707917, "province": "四川省", "city": "成都市", "district": "金牛区" }, "geometry": { "type": "Point", "coordinates": [ 104.000974, 30.707917 ] } },
{ "type": "Feature", "properties": { "name": "御阁酒店(白鸽岛店)", "type": "住宿服务;宾馆酒店;宾馆酒店", "address": "蜀西路69号(近三环羊犀立交,高家庄站)", "lng": 103.996491, "lat": 30.709334, "province": "四川省", "city": "成都市", "district": "金牛区" }, "geometry": { "type": "Point", "coordinates": [ 103.996491, 30.709334 ] } },
{ "type": "Feature", "properties": { "name": "和谐酒店(成都蜀西路店)", "type": "住宿服务;宾馆酒店;经济型连锁酒店", "address": "蜀西路39号", "lng": 103.99896, "lat": 30.7075, "province": "四川省", "city": "成都市", "district": "金牛区" }, "geometry": { "type": "Point", "coordinates": [ 103.99896, 30.7075 ] } },
{ "type": "Feature", "properties": { "name": "成都森林迎旅馆", "type": "住宿服务;住宿服务相关;住宿服务相关", "address": "迎宾大道近郊民居12栋1单元1楼1号(近墨西路)", "lng": 104.003494, "lat": 30.711311, "province": "四川省", "city": "成都市", "district": "金牛区" }, "geometry": { "type": "Point", "coordinates": [ 104.003494, 30.711311 ] } },
{ "type": "Feature", "properties": { "name": "蝴蝶兰公寓(成都二店)", "type": "住宿服务;住宿服务相关;住宿服务相关", "address": "蜀西路29号高家庄赞城", "lng": 103.99808, "lat": 30.70723, "province": "四川省", "city": "成都市", "district": "金牛区" }, "geometry": { "type": "Point", "coordinates": [ 103.99808, 30.70723 ] } },
{ "type": "Feature", "properties": { "name": "成都温新家庭旅馆", "type": "住宿服务;住宿服务相关;住宿服务相关", "address": "金卉苑小区8栋2单元6号", "lng": 104.00581, "lat": 30.713312, "province": "四川省", "city": "成都市", "district": "金牛区" }, "geometry": { "type": "Point", "coordinates": [ 104.00581, 30.713312 ] } },
{ "type": "Feature", "properties": { "name": "成都小院子民宿", "type": "住宿服务;住宿服务相关;住宿服务相关", "address": "迎宾大道411号(近金瑞路)", "lng": 104.005491, "lat": 30.707944, "province": "四川省", "city": "成都市", "district": "金牛区" }, "geometry": { "type": "Point", "coordinates": [ 104.005491, 30.707944 ] } },
{ "type": "Feature", "properties": { "name": "成都乐途家庭公寓", "type": "住宿服务;住宿服务相关;住宿服务相关", "address": "迎宾大道近郊民居12栋一单元3楼6号", "lng": 104.003672, "lat": 30.711282, "province": "四川省", "city": "成都市", "district": "金牛区" }, "geometry": { "type": "Point", "coordinates": [ 104.003672, 30.711282 ] } },
{ "type": "Feature", "properties": { "name": "尚悦客栈", "type": "住宿服务;旅馆招待所;旅馆招待所", "address": "迎宾大道近郊民居25幢(邻科兴南路)", "lng": 104.00095, "lat": 30.71156, "province": "四川省", "city": "成都市", "district": "金牛区" }, "geometry": { "type": "Point", "coordinates": [ 104.00095, 30.71156 ] } },
{ "type": "Feature", "properties": { "name": "迎宾一号", "type": "住宿服务;宾馆酒店;四星级宾馆", "address": "迎宾大道中段金科东路38号", "lng": 104.007693, "lat": 30.712491, "province": "四川省", "city": "成都市", "district": "金牛区" }, "geometry": { "type": "Point", "coordinates": [ 104.007693, 30.712491 ] } },
{ "type": "Feature", "properties": { "name": "好逸·舒泊酒店(成都迎宾店)", "type": "住宿服务;宾馆酒店;五星级宾馆", "address": "迎宾大道123号", "lng": 104.010698, "lat": 30.710579, "province": "四川省", "city": "成都市", "district": "金牛区" }, "geometry": { "type": "Point", "coordinates": [ 104.010698, 30.710579 ] } },
{ "type": "Feature", "properties": { "name": "晶山假日酒店", "type": "住宿服务;宾馆酒店;宾馆酒店", "address": "迎宾大道金耀路160号(地铁2号线迎宾大道C出口斜对面)", "lng": 104.011917, "lat": 30.710942, "province": "四川省", "city": "成都市", "district": "金牛区" }, "geometry": { "type": "Point", "coordinates": [ 104.011917, 30.710942 ] } },
{ "type": "Feature", "properties": { "name": "迎宾春天酒店", "type": "住宿服务;宾馆酒店;宾馆酒店", "address": "迎宾大道299号2层", "lng": 104.008405, "lat": 30.709895, "province": "四川省", "city": "成都市", "district": "金牛区" }, "geometry": { "type": "Point", "coordinates": [ 104.008405, 30.709895 ] } },
{ "type": "Feature", "properties": { "name": "优客逸家酒店公寓(成都茶店子迎宾大道店)", "type": "住宿服务;宾馆酒店;经济型连锁酒店", "address": "迎宾大道165号(茶店子客运站地铁J口)", "lng": 104.01194, "lat": 30.711286, "province": "四川省", "city": "成都市", "district": "金牛区" }, "geometry": { "type": "Point", "coordinates": [ 104.01194, 30.711286 ] } },
{ "type": "Feature", "properties": { "name": "亿家公寓", "type": "住宿服务;旅馆招待所;旅馆招待所", "address": "茶店子金瑞路118号西岸观邸6栋(长途客运中心地铁A口旁)", "lng": 104.013147, "lat": 30.707024, "province": "四川省", "city": "成都市", "district": "金牛区" }, "geometry": { "type": "Point", "coordinates": [ 104.013147, 30.707024 ] } },
{ "type": "Feature", "properties": { "name": "成都顺心客栈", "type": "住宿服务;住宿服务相关;住宿服务相关", "address": "金卉路118号(茶店子车站地铁口A出口旁)", "lng": 104.01352, "lat": 30.707251, "province": "四川省", "city": "成都市", "district": "金牛区" }, "geometry": { "type": "Point", "coordinates": [ 104.01352, 30.707251 ] } },
{ "type": "Feature", "properties": { "name": "成都西欧客栈", "type": "住宿服务;旅馆招待所;旅馆招待所", "address": "蜀跃路185号恒大·西锦城8幢", "lng": 104.009573, "lat": 30.708532, "province": "四川省", "city": "成都市", "district": "金牛区" }, "geometry": { "type": "Point", "coordinates": [ 104.009573, 30.708532 ] } },
{ "type": "Feature", "properties": { "name": "茶店子车站家庭旅馆", "type": "住宿服务;旅馆招待所;旅馆招待所", "address": "金耀路47号西岸观邸10栋1401室", "lng": 104.013029, "lat": 30.707471, "province": "四川省", "city": "成都市", "district": "金牛区" }, "geometry": { "type": "Point", "coordinates": [ 104.013029, 30.707471 ] } },
{ "type": "Feature", "properties": { "name": "成都天府壹家酒店公寓(万科金域西岭店)", "type": "住宿服务;宾馆酒店;宾馆酒店", "address": "金耀路74号", "lng": 104.012916, "lat": 30.708648, "province": "四川省", "city": "成都市", "district": "金牛区" }, "geometry": { "type": "Point", "coordinates": [ 104.012916, 30.708648 ] } },
{ "type": "Feature", "properties": { "name": "成都广美家庭小客栈", "type": "住宿服务;旅馆招待所;旅馆招待所", "address": "金瑞路118号西岸观邸7栋1单元", "lng": 104.011818, "lat": 30.706986, "province": "四川省", "city": "成都市", "district": "金牛区" }, "geometry": { "type": "Point", "coordinates": [ 104.011818, 30.706986 ] } },
{ "type": "Feature", "properties": { "name": "快乐E家酒店公寓(成都恒大·西锦城店)", "type": "住宿服务;住宿服务相关;住宿服务相关", "address": "迎宾大道123号", "lng": 104.011135, "lat": 30.710693, "province": "四川省", "city": "成都市", "district": "金牛区" }, "geometry": { "type": "Point", "coordinates": [ 104.011135, 30.710693 ] } },
{ "type": "Feature", "properties": { "name": "成都快乐e家客栈(迎宾大道店)", "type": "住宿服务;旅馆招待所;旅馆招待所", "address": "迎宾大道165号", "lng": 104.010803, "lat": 30.710492, "province": "四川省", "city": "成都市", "district": "金牛区" }, "geometry": { "type": "Point", "coordinates": [ 104.010803, 30.710492 ] } },
{ "type": "Feature", "properties": { "name": "成都兴鑫公寓(茶店子客运站店)", "type": "住宿服务;住宿服务相关;住宿服务相关", "address": "茶店子(地铁A出口)西岸观邸4栋", "lng": 104.012097, "lat": 30.707645, "province": "四川省", "city": "成都市", "district": "金牛区" }, "geometry": { "type": "Point", "coordinates": [ 104.012097, 30.707645 ] } },
{ "type": "Feature", "properties": { "name": "成都如家小憩客栈茶店子客运站店", "type": "住宿服务;宾馆酒店;经济型连锁酒店", "address": "金卉南路11号茶店子客运站旁", "lng": 104.0111, "lat": 30.707398, "province": "四川省", "city": "成都市", "district": "金牛区" }, "geometry": { "type": "Point", "coordinates": [ 104.0111, 30.707398 ] } },
{ "type": "Feature", "properties": { "name": "成都安吉小舍", "type": "住宿服务;住宿服务相关;住宿服务相关", "address": "金瑞路118号西岸观邸(地铁2号茶店子客运站A口)(近金卉南路)", "lng": 104.010331, "lat": 30.707144, "province": "四川省", "city": "成都市", "district": "金牛区" }, "geometry": { "type": "Point", "coordinates": [ 104.010331, 30.707144 ] } },
{ "type": "Feature", "properties": { "name": "优客逸家酒店公寓(成都万科金域西岭店)", "type": "住宿服务;宾馆酒店;宾馆酒店", "address": "金耀路74号(近蜀跃路)", "lng": 104.013829, "lat": 30.70981, "province": "四川省", "city": "成都市", "district": "金牛区" }, "geometry": { "type": "Point", "coordinates": [ 104.013829, 30.70981 ] } },
{ "type": "Feature", "properties": { "name": "成都24K温情客栈(茶店子车站店)", "type": "住宿服务;旅馆招待所;旅馆招待所", "address": "金瑞路118号西岸观邸7层", "lng": 104.011036, "lat": 30.707297, "province": "四川省", "city": "成都市", "district": "金牛区" }, "geometry": { "type": "Point", "coordinates": [ 104.011036, 30.707297 ] } },
{ "type": "Feature", "properties": { "name": "成都好又来客栈", "type": "住宿服务;住宿服务相关;住宿服务相关", "address": "蜀跃东路262号檀香花园4-1-1805", "lng": 104.011811, "lat": 30.707888, "province": "四川省", "city": "成都市", "district": "金牛区" }, "geometry": { "type": "Point", "coordinates": [ 104.011811, 30.707888 ] } },
{ "type": "Feature", "properties": { "name": "成都茶店子客运站乐怡家庭公寓", "type": "住宿服务;住宿服务相关;住宿服务相关", "address": "金耀路47号5栋1单元303室", "lng": 104.013342, "lat": 30.707583, "province": "四川省", "city": "成都市", "district": "金牛区" }, "geometry": { "type": "Point", "coordinates": [ 104.013342, 30.707583 ] } },
{ "type": "Feature", "properties": { "name": "旅行客栈", "type": "住宿服务;旅馆招待所;旅馆招待所", "address": "金耀路31号", "lng": 104.013912, "lat": 30.707124, "province": "四川省", "city": "成都市", "district": "金牛区" }, "geometry": { "type": "Point", "coordinates": [ 104.013912, 30.707124 ] } },
{ "type": "Feature", "properties": { "name": "成都马尔康客栈", "type": "住宿服务;住宿服务相关;住宿服务相关", "address": "迎宾大道123号紧邻地铁2号线", "lng": 104.012063, "lat": 30.711293, "province": "四川省", "city": "成都市", "district": "金牛区" }, "geometry": { "type": "Point", "coordinates": [ 104.012063, 30.711293 ] } },
{ "type": "Feature", "properties": { "name": "成都鑫意公寓(茶店子客运站店)", "type": "住宿服务;住宿服务相关;住宿服务相关", "address": "金卉南路100号(茶店子客运站、茶店子地铁A出口)", "lng": 104.013091, "lat": 30.707106, "province": "四川省", "city": "成都市", "district": "金牛区" }, "geometry": { "type": "Point", "coordinates": [ 104.013091, 30.707106 ] } },
{ "type": "Feature", "properties": { "name": "成都金牛区温馨家庭旅馆", "type": "住宿服务;旅馆招待所;旅馆招待所", "address": "金卉苑小区8栋2单元6号(成都济宏医院附近)", "lng": 104.00631, "lat": 30.71363, "province": "四川省", "city": "成都市", "district": "金牛区" }, "geometry": { "type": "Point", "coordinates": [ 104.00631, 30.71363 ] } },
{ "type": "Feature", "properties": { "name": "成都Frank青年客栈", "type": "住宿服务;住宿服务相关;住宿服务相关", "address": "金瑞路118号西岸观邸", "lng": 104.012702, "lat": 30.707548, "province": "四川省", "city": "成都市", "district": "金牛区" }, "geometry": { "type": "Point", "coordinates": [ 104.012702, 30.707548 ] } },
{ "type": "Feature", "properties": { "name": "成都悠客美居住宿茶店子店", "type": "住宿服务;住宿服务相关;住宿服务相关", "address": "蜀跃路华置西锦城", "lng": 104.011077, "lat": 30.710983, "province": "四川省", "city": "成都市", "district": "金牛区" }, "geometry": { "type": "Point", "coordinates": [ 104.011077, 30.710983 ] } },
{ "type": "Feature", "properties": { "name": "成都好又来公寓", "type": "住宿服务;住宿服务相关;住宿服务相关", "address": "金瑞路118号西岸观邸", "lng": 104.01188, "lat": 30.706979, "province": "四川省", "city": "成都市", "district": "金牛区" }, "geometry": { "type": "Point", "coordinates": [ 104.01188, 30.706979 ] } },
{ "type": "Feature", "properties": { "name": "成都缘来公寓西岸观邸店", "type": "住宿服务;住宿服务相关;住宿服务相关", "address": "茶店子西岸观邸", "lng": 104.011186, "lat": 30.707399, "province": "四川省", "city": "成都市", "district": "金牛区" }, "geometry": { "type": "Point", "coordinates": [ 104.011186, 30.707399 ] } },
{ "type": "Feature", "properties": { "name": "成都旅途驿站公寓", "type": "住宿服务;住宿服务相关;住宿服务相关", "address": "金科东路65号", "lng": 104.006276, "lat": 30.713592, "province": "四川省", "city": "成都市", "district": "金牛区" }, "geometry": { "type": "Point", "coordinates": [ 104.006276, 30.713592 ] } },
{ "type": "Feature", "properties": { "name": "成都喜宴中心", "type": "住宿服务;宾馆酒店;四星级宾馆", "address": "迎宾大道中段金科东路38号", "lng": 104.00761, "lat": 30.712415, "province": "四川省", "city": "成都市", "district": "金牛区" }, "geometry": { "type": "Point", "coordinates": [ 104.00761, 30.712415 ] } },
{ "type": "Feature", "properties": { "name": "成都永洪客栈(茶店子车站店)", "type": "住宿服务;旅馆招待所;旅馆招待所", "address": "金瑞路118号西岸观邸3栋2单元", "lng": 104.011088, "lat": 30.707412, "province": "四川省", "city": "成都市", "district": "金牛区" }, "geometry": { "type": "Point", "coordinates": [ 104.011088, 30.707412 ] } },
{ "type": "Feature", "properties": { "name": "成都阳光公寓茶店子客运站店", "type": "住宿服务;住宿服务相关;住宿服务相关", "address": "蜀跃路100号", "lng": 104.013083, "lat": 30.707134, "province": "四川省", "city": "成都市", "district": "金牛区" }, "geometry": { "type": "Point", "coordinates": [ 104.013083, 30.707134 ] } },
{ "type": "Feature", "properties": { "name": "晶由假日酒店", "type": "住宿服务;宾馆酒店;宾馆酒店", "address": "迎宾大道199号1幢附近", "lng": 104.012, "lat": 30.711279, "province": "四川省", "city": "成都市", "district": "金牛区" }, "geometry": { "type": "Point", "coordinates": [ 104.012, 30.711279 ] } },
{ "type": "Feature", "properties": { "name": "成都市如意旅馆", "type": "住宿服务;旅馆招待所;旅馆招待所", "address": "郎家小区12栋1单元3楼6号", "lng": 104.006339, "lat": 30.713531, "province": "四川省", "city": "成都市", "district": "金牛区" }, "geometry": { "type": "Point", "coordinates": [ 104.006339, 30.713531 ] } },
{ "type": "Feature", "properties": { "name": "成都朋来家庭客栈", "type": "住宿服务;旅馆招待所;旅馆招待所", "address": "金耀路118号(茶店子地铁A口对面)", "lng": 104.012447, "lat": 30.709376, "province": "四川省", "city": "成都市", "district": "金牛区" }, "geometry": { "type": "Point", "coordinates": [ 104.012447, 30.709376 ] } },
{ "type": "Feature", "properties": { "name": "相约客栈", "type": "住宿服务;旅馆招待所;旅馆招待所", "address": "金耀路31号", "lng": 104.013458, "lat": 30.707907, "province": "四川省", "city": "成都市", "district": "金牛区" }, "geometry": { "type": "Point", "coordinates": [ 104.013458, 30.707907 ] } },
{ "type": "Feature", "properties": { "name": "驴友客栈", "type": "住宿服务;旅馆招待所;旅馆招待所", "address": "金耀路13号", "lng": 104.013538, "lat": 30.707921, "province": "四川省", "city": "成都市", "district": "金牛区" }, "geometry": { "type": "Point", "coordinates": [ 104.013538, 30.707921 ] } },
{ "type": "Feature", "properties": { "name": "成都若尔盖客栈", "type": "住宿服务;旅馆招待所;旅馆招待所", "address": "金卉路", "lng": 104.014175, "lat": 30.712112, "province": "四川省", "city": "成都市", "district": "金牛区" }, "geometry": { "type": "Point", "coordinates": [ 104.014175, 30.712112 ] } },
{ "type": "Feature", "properties": { "name": "金牛山庄", "type": "住宿服务;宾馆酒店;四星级宾馆", "address": "金牛坝路9号", "lng": 104.019206, "lat": 30.707347, "province": "四川省", "city": "成都市", "district": "金牛区" }, "geometry": { "type": "Point", "coordinates": [ 104.019206, 30.707347 ] } },
{ "type": "Feature", "properties": { "name": "金牛宾馆(金泉4号院东)", "type": "住宿服务;宾馆酒店;宾馆酒店", "address": "金泉路2号", "lng": 104.018714, "lat": 30.716201, "province": "四川省", "city": "成都市", "district": "金牛区" }, "geometry": { "type": "Point", "coordinates": [ 104.018714, 30.716201 ] } },
{ "type": "Feature", "properties": { "name": "祥源大酒店(众源路)", "type": "住宿服务;宾馆酒店;四星级宾馆", "address": "金立路9号", "lng": 104.025263, "lat": 30.710967, "province": "四川省", "city": "成都市", "district": "金牛区" }, "geometry": { "type": "Point", "coordinates": [ 104.025263, 30.710967 ] } },
{ "type": "Feature", "properties": { "name": "万里客商务酒店(成都金牛店)", "type": "住宿服务;宾馆酒店;宾馆酒店", "address": "金牛坝路14号(川西名居东北)", "lng": 104.019242, "lat": 30.710176, "province": "四川省", "city": "成都市", "district": "金牛区" }, "geometry": { "type": "Point", "coordinates": [ 104.019242, 30.710176 ] } },
{ "type": "Feature", "properties": { "name": "成都浪漫樱花客栈", "type": "住宿服务;住宿服务相关;住宿服务相关", "address": "南林路3组63号", "lng": 104.01892, "lat": 30.713971, "province": "四川省", "city": "成都市", "district": "金牛区" }, "geometry": { "type": "Point", "coordinates": [ 104.01892, 30.713971 ] } },
{ "type": "Feature", "properties": { "name": "金牛宾馆雅苑", "type": "住宿服务;宾馆酒店;宾馆酒店", "address": "金泉路2号", "lng": 104.016341, "lat": 30.715074, "province": "四川省", "city": "成都市", "district": "金牛区" }, "geometry": { "type": "Point", "coordinates": [ 104.016341, 30.715074 ] } },
{ "type": "Feature", "properties": { "name": "金牛宾馆迎宾苑", "type": "住宿服务;宾馆酒店;宾馆酒店", "address": "金泉路2号", "lng": 104.016119, "lat": 30.715524, "province": "四川省", "city": "成都市", "district": "金牛区" }, "geometry": { "type": "Point", "coordinates": [ 104.016119, 30.715524 ] } },
{ "type": "Feature", "properties": { "name": "遂宁客栈", "type": "住宿服务;旅馆招待所;旅馆招待所", "address": "金卉路东50米附近", "lng": 104.021207, "lat": 30.710382, "province": "四川省", "city": "成都市", "district": "金牛区" }, "geometry": { "type": "Point", "coordinates": [ 104.021207, 30.710382 ] } },
{ "type": "Feature", "properties": { "name": "玉蓉茶楼住宿", "type": "住宿服务;旅馆招待所;旅馆招待所", "address": "金卉路东200米", "lng": 104.023968, "lat": 30.710966, "province": "四川省", "city": "成都市", "district": "金牛区" }, "geometry": { "type": "Point", "coordinates": [ 104.023968, 30.710966 ] } },
{ "type": "Feature", "properties": { "name": "红原住宿", "type": "住宿服务;旅馆招待所;旅馆招待所", "address": "跃进村八组1号", "lng": 104.021304, "lat": 30.710465, "province": "四川省", "city": "成都市", "district": "金牛区" }, "geometry": { "type": "Point", "coordinates": [ 104.021304, 30.710465 ] } },
{ "type": "Feature", "properties": { "name": "好又来茶旅社", "type": "住宿服务;住宿服务相关;住宿服务相关", "address": "迎宾大道1号2室附近", "lng": 104.016303, "lat": 30.712717, "province": "四川省", "city": "成都市", "district": "金牛区" }, "geometry": { "type": "Point", "coordinates": [ 104.016303, 30.712717 ] } },
{ "type": "Feature", "properties": { "name": "金牛宾馆逸苑", "type": "住宿服务;宾馆酒店;宾馆酒店", "address": "金泉路2号", "lng": 104.017641, "lat": 30.715771, "province": "四川省", "city": "成都市", "district": "金牛区" }, "geometry": { "type": "Point", "coordinates": [ 104.017641, 30.715771 ] } },
{ "type": "Feature", "properties": { "name": "君上主题酒店", "type": "住宿服务;宾馆酒店;宾馆酒店", "address": "茶店子街道红旗超市(理想便利店)新和名座", "lng": 104.019405, "lat": 30.709809, "province": "四川省", "city": "成都市", "district": "金牛区" }, "geometry": { "type": "Point", "coordinates": [ 104.019405, 30.709809 ] } },
{ "type": "Feature", "properties": { "name": "鹿归酒店", "type": "住宿服务;宾馆酒店;宾馆酒店", "address": "幸福镇迎宾大道55号", "lng": 104.016974, "lat": 30.710693, "province": "四川省", "city": "成都市", "district": "金牛区" }, "geometry": { "type": "Point", "coordinates": [ 104.016974, 30.710693 ] } },
{ "type": "Feature", "properties": { "name": "金府银座酒店", "type": "住宿服务;宾馆酒店;四星级宾馆", "address": "金府路593号金府银座", "lng": 104.035993, "lat": 30.711937, "province": "四川省", "city": "成都市", "district": "金牛区" }, "geometry": { "type": "Point", "coordinates": [ 104.035993, 30.711937 ] } },
{ "type": "Feature", "properties": { "name": "金湖精品商务公馆", "type": "住宿服务;宾馆酒店;五星级宾馆", "address": "金府路593号金府银座4层", "lng": 104.035993, "lat": 30.711938, "province": "四川省", "city": "成都市", "district": "金牛区" }, "geometry": { "type": "Point", "coordinates": [ 104.035993, 30.711938 ] } },
{ "type": "Feature", "properties": { "name": "成都金窝窝经济型酒店式公寓", "type": "住宿服务;住宿服务相关;住宿服务相关", "address": "金府路593号金府银座7栋601(近欢乐谷)", "lng": 104.035255, "lat": 30.713261, "province": "四川省", "city": "成都市", "district": "金牛区" }, "geometry": { "type": "Point", "coordinates": [ 104.035255, 30.713261 ] } },
{ "type": "Feature", "properties": { "name": "金窝窝酒店公寓", "type": "住宿服务;旅馆招待所;旅馆招待所", "address": "金府路555号金府银座7栋601室(近欢乐谷)", "lng": 104.03551, "lat": 30.712507, "province": "四川省", "city": "成都市", "district": "金牛区" }, "geometry": { "type": "Point", "coordinates": [ 104.03551, 30.712507 ] } },
{ "type": "Feature", "properties": { "name": "林道假日酒店", "type": "住宿服务;宾馆酒店;宾馆酒店", "address": "西华大道221号(创想中心D座)", "lng": 104.029057, "lat": 30.71346, "province": "四川省", "city": "成都市", "district": "金牛区" }, "geometry": { "type": "Point", "coordinates": [ 104.029057, 30.71346 ] } },
{ "type": "Feature", "properties": { "name": "成都金韵酒店", "type": "住宿服务;宾馆酒店;五星级宾馆", "address": "金府路668号(近欢乐谷)", "lng": 104.041654, "lat": 30.71419, "province": "四川省", "city": "成都市", "district": "金牛区" }, "geometry": { "type": "Point", "coordinates": [ 104.041654, 30.71419 ] } },
{ "type": "Feature", "properties": { "name": "君逸酒店(金府店)", "type": "住宿服务;宾馆酒店;五星级宾馆", "address": "金府路666号", "lng": 104.041116, "lat": 30.713864, "province": "四川省", "city": "成都市", "district": "金牛区" }, "geometry": { "type": "Point", "coordinates": [ 104.041116, 30.713864 ] } },
{ "type": "Feature", "properties": { "name": "99优选酒店(成都欢乐谷店)", "type": "住宿服务;宾馆酒店;宾馆酒店", "address": "甘泉路9号4楼", "lng": 104.045649, "lat": 30.714485, "province": "四川省", "city": "成都市", "district": "金牛区" }, "geometry": { "type": "Point", "coordinates": [ 104.045649, 30.714485 ] } },
{ "type": "Feature", "properties": { "name": "天府名都商务酒店(欢乐谷店)", "type": "住宿服务;宾馆酒店;宾馆酒店", "address": "金府路669号2栋10-15层(金府机店城4号门,欢乐谷附近)", "lng": 104.040424, "lat": 30.714227, "province": "四川省", "city": "成都市", "district": "金牛区" }, "geometry": { "type": "Point", "coordinates": [ 104.040424, 30.714227 ] } },
{ "type": "Feature", "properties": { "name": "MS酒店", "type": "住宿服务;宾馆酒店;宾馆酒店", "address": "金府路668号金府财富中心10F(金府财富中心)", "lng": 104.04191, "lat": 30.713152, "province": "四川省", "city": "成都市", "district": "金牛区" }, "geometry": { "type": "Point", "coordinates": [ 104.04191, 30.713152 ] } },
{ "type": "Feature", "properties": { "name": "布丁酒店(成都金牛区金府路店)", "type": "住宿服务;宾馆酒店;经济型连锁酒店", "address": "金府路777号1栋3层", "lng": 104.041767, "lat": 30.715206, "province": "四川省", "city": "成都市", "district": "金牛区" }, "geometry": { "type": "Point", "coordinates": [ 104.041767, 30.715206 ] } },
{ "type": "Feature", "properties": { "name": "和谐酒店(旗舰店)", "type": "住宿服务;宾馆酒店;宾馆酒店", "address": "甘泉路5号4层", "lng": 104.04565, "lat": 30.714486, "province": "四川省", "city": "成都市", "district": "金牛区" }, "geometry": { "type": "Point", "coordinates": [ 104.04565, 30.714486 ] } },
{ "type": "Feature", "properties": { "name": "成都阑珊公寓欢乐谷店", "type": "住宿服务;住宿服务相关;住宿服务相关", "address": "金府路666号(农商银行楼上8楼,近欢乐谷)", "lng": 104.040946, "lat": 30.713259, "province": "四川省", "city": "成都市", "district": "金牛区" }, "geometry": { "type": "Point", "coordinates": [ 104.040946, 30.713259 ] } },
{ "type": "Feature", "properties": { "name": "金宇酒店(星河路)", "type": "住宿服务;宾馆酒店;宾馆酒店", "address": "星河路68号人人乐4层", "lng": 104.045881, "lat": 30.707107, "province": "四川省", "city": "成都市", "district": "金牛区" }, "geometry": { "type": "Point", "coordinates": [ 104.045881, 30.707107 ] } },
{ "type": "Feature", "properties": { "name": "成都新雅居商务宾馆(一品天下店)", "type": "住宿服务;宾馆酒店;宾馆酒店", "address": "交大路260号圣马可广场旺座5层", "lng": 104.03692, "lat": 30.71076, "province": "四川省", "city": "成都市", "district": "金牛区" }, "geometry": { "type": "Point", "coordinates": [ 104.03692, 30.71076 ] } },
{ "type": "Feature", "properties": { "name": "成都梧桐公寓欢乐谷店", "type": "住宿服务;住宿服务相关;住宿服务相关", "address": "金府路666号金府SOHO广场1栋8楼(农商银行楼上,近欢乐谷)", "lng": 104.040722, "lat": 30.713061, "province": "四川省", "city": "成都市", "district": "金牛区" }, "geometry": { "type": "Point", "coordinates": [ 104.040722, 30.713061 ] } },
{ "type": "Feature", "properties": { "name": "成都5号公寓", "type": "住宿服务;住宿服务相关;住宿服务相关", "address": "金府路666号SOHO广场(金府灯具城.金府机电城.长久机电城.万贯五金机电城.欢乐谷.西南交大大学)", "lng": 104.041042, "lat": 30.71306, "province": "四川省", "city": "成都市", "district": "金牛区" }, "geometry": { "type": "Point", "coordinates": [ 104.041042, 30.71306 ] } },
{ "type": "Feature", "properties": { "name": "成都金之湖假日酒店", "type": "住宿服务;住宿服务相关;住宿服务相关", "address": "金府路555号金府银座酒店4楼", "lng": 104.036106, "lat": 30.712201, "province": "四川省", "city": "成都市", "district": "金牛区" }, "geometry": { "type": "Point", "coordinates": [ 104.036106, 30.712201 ] } },
{ "type": "Feature", "properties": { "name": "禾力商务酒店", "type": "住宿服务;宾馆酒店;宾馆酒店", "address": "交大路260号圣马可广场旺座", "lng": 104.037006, "lat": 30.710757, "province": "四川省", "city": "成都市", "district": "金牛区" }, "geometry": { "type": "Point", "coordinates": [ 104.037006, 30.710757 ] } },
{ "type": "Feature", "properties": { "name": "佳运来商务酒店", "type": "住宿服务;宾馆酒店;宾馆酒店", "address": "长庆路10号附38号", "lng": 104.039781, "lat": 30.707559, "province": "四川省", "city": "成都市", "district": "金牛区" }, "geometry": { "type": "Point", "coordinates": [ 104.039781, 30.707559 ] } },
{ "type": "Feature", "properties": { "name": "成都良辰美景主题酒店", "type": "住宿服务;住宿服务相关;住宿服务相关", "address": "九里堤长和路15号", "lng": 104.044121, "lat": 30.713278, "province": "四川省", "city": "成都市", "district": "金牛区" }, "geometry": { "type": "Point", "coordinates": [ 104.044121, 30.713278 ] } },
{ "type": "Feature", "properties": { "name": "三圣酒店", "type": "住宿服务;住宿服务相关;住宿服务相关", "address": "星河路67-12号附近", "lng": 104.043994, "lat": 30.70732, "province": "四川省", "city": "成都市", "district": "金牛区" }, "geometry": { "type": "Point", "coordinates": [ 104.043994, 30.70732 ] } },
{ "type": "Feature", "properties": { "name": "天府丽都商务酒店金府店", "type": "住宿服务;住宿服务相关;住宿服务相关", "address": "金府路669号2栋10-15楼(金府机店城4号门,欢乐谷附近)", "lng": 104.040312, "lat": 30.714244, "province": "四川省", "city": "成都市", "district": "金牛区" }, "geometry": { "type": "Point", "coordinates": [ 104.040312, 30.714244 ] } },
{ "type": "Feature", "properties": { "name": "永禾宾馆", "type": "住宿服务;宾馆酒店;宾馆酒店", "address": "营门口街道圣马可广场旺座", "lng": 104.037002, "lat": 30.710509, "province": "四川省", "city": "成都市", "district": "金牛区" }, "geometry": { "type": "Point", "coordinates": [ 104.037002, 30.710509 ] } },
{ "type": "Feature", "properties": { "name": "福金旅馆", "type": "住宿服务;旅馆招待所;旅馆招待所", "address": "茶店子西口金府机电城", "lng": 104.036911, "lat": 30.71228, "province": "四川省", "city": "成都市", "district": "金牛区" }, "geometry": { "type": "Point", "coordinates": [ 104.036911, 30.71228 ] } },
{ "type": "Feature", "properties": { "name": "成都三鑫源酒店(九里堤店)", "type": "住宿服务;宾馆酒店;宾馆酒店", "address": "星科北街44号3层", "lng": 104.051367, "lat": 30.70853, "province": "四川省", "city": "成都市", "district": "金牛区" }, "geometry": { "type": "Point", "coordinates": [ 104.051367, 30.70853 ] } },
{ "type": "Feature", "properties": { "name": "万峰大酒店", "type": "住宿服务;宾馆酒店;四星级宾馆", "address": "五福桥东路6号-5-1附4", "lng": 104.064216, "lat": 30.71286, "province": "四川省", "city": "成都市", "district": "金牛区" }, "geometry": { "type": "Point", "coordinates": [ 104.064216, 30.71286 ] } },
{ "type": "Feature", "properties": { "name": "百辰大酒店", "type": "住宿服务;宾馆酒店;四星级宾馆", "address": "蓉北商贸大道二段华润峰尚", "lng": 104.059286, "lat": 30.71471, "province": "四川省", "city": "成都市", "district": "金牛区" }, "geometry": { "type": "Point", "coordinates": [ 104.059286, 30.71471 ] } },
{ "type": "Feature", "properties": { "name": "北城天街大酒店(龙湖北城天街店)", "type": "住宿服务;宾馆酒店;宾馆酒店", "address": "五福桥东路229号-龙湖·北城天街购物广场326层", "lng": 104.063853, "lat": 30.709197, "province": "四川省", "city": "成都市", "district": "金牛区" }, "geometry": { "type": "Point", "coordinates": [ 104.063853, 30.709197 ] } },
{ "type": "Feature", "properties": { "name": "成都锦客国际酒店", "type": "住宿服务;宾馆酒店;四星级宾馆", "address": "福源路3号1层", "lng": 104.058949, "lat": 30.714564, "province": "四川省", "city": "成都市", "district": "金牛区" }, "geometry": { "type": "Point", "coordinates": [ 104.058949, 30.714564 ] } },
{ "type": "Feature", "properties": { "name": "成都好雨时节酒店火车北站店", "type": "住宿服务;宾馆酒店;宾馆酒店", "address": "五福桥东路229号-32号17层", "lng": 104.063853, "lat": 30.709197, "province": "四川省", "city": "成都市", "district": "金牛区" }, "geometry": { "type": "Point", "coordinates": [ 104.063853, 30.709197 ] } },
{ "type": "Feature", "properties": { "name": "格林豪泰酒店(四川省成都市五块石龙湖北城天街)", "type": "住宿服务;宾馆酒店;经济型连锁酒店", "address": "五福桥东路6号-6-1附3", "lng": 104.065216, "lat": 30.712805, "province": "四川省", "city": "成都市", "district": "金牛区" }, "geometry": { "type": "Point", "coordinates": [ 104.065216, 30.712805 ] } },
{ "type": "Feature", "properties": { "name": "美丽湾酒店(龙湖北城天街店)", "type": "住宿服务;宾馆酒店;宾馆酒店", "address": "五福桥东路229号32栋12层(远东百货旁)", "lng": 104.063853, "lat": 30.709197, "province": "四川省", "city": "成都市", "district": "金牛区" }, "geometry": { "type": "Point", "coordinates": [ 104.063853, 30.709197 ] } },
{ "type": "Feature", "properties": { "name": "成都源美印象酒店火车北站店", "type": "住宿服务;宾馆酒店;宾馆酒店", "address": "五块石蓉北商贸大道1段龙湖北城天街二期32栋9层", "lng": 104.063853, "lat": 30.709197, "province": "四川省", "city": "成都市", "district": "金牛区" }, "geometry": { "type": "Point", "coordinates": [ 104.063853, 30.709197 ] } },
{ "type": "Feature", "properties": { "name": "蜜家美居酒店", "type": "住宿服务;宾馆酒店;宾馆酒店", "address": "五块石蓉北商贸大道一段229号龙湖北城天街北城星座32栋13层", "lng": 104.063922, "lat": 30.709062, "province": "四川省", "city": "成都市", "district": "金牛区" }, "geometry": { "type": "Point", "coordinates": [ 104.063922, 30.709062 ] } },
{ "type": "Feature", "properties": { "name": "北星酒店", "type": "住宿服务;宾馆酒店;宾馆酒店", "address": "商贸大道映日荷花小区旁文心路6号", "lng": 104.062042, "lat": 30.713065, "province": "四川省", "city": "成都市", "district": "金牛区" }, "geometry": { "type": "Point", "coordinates": [ 104.062042, 30.713065 ] } },
{ "type": "Feature", "properties": { "name": "玖鑫商务酒店(金牛店)", "type": "住宿服务;宾馆酒店;宾馆酒店", "address": "蓉北商贸大道一段91号(近火车北站西南交大)", "lng": 104.06458, "lat": 30.707058, "province": "四川省", "city": "成都市", "district": "金牛区" }, "geometry": { "type": "Point", "coordinates": [ 104.06458, 30.707058 ] } },
{ "type": "Feature", "properties": { "name": "旺角天空主题酒店(成都火车北站五块石汽车店)", "type": "住宿服务;宾馆酒店;宾馆酒店", "address": "五块石蓉北商贸大道1段229号,龙湖北城天街32栋14楼(邓家湾公交站,远东百货旁)", "lng": 104.06374, "lat": 30.708997, "province": "四川省", "city": "成都市", "district": "金牛区" }, "geometry": { "type": "Point", "coordinates": [ 104.06374, 30.708997 ] } },
{ "type": "Feature", "properties": { "name": "皇玛酒店", "type": "住宿服务;宾馆酒店;宾馆酒店", "address": "蓉北大道一段97号", "lng": 104.064373, "lat": 30.707378, "province": "四川省", "city": "成都市", "district": "金牛区" }, "geometry": { "type": "Point", "coordinates": [ 104.064373, 30.707378 ] } },
{ "type": "Feature", "properties": { "name": "成都7掌柜家庭旅馆", "type": "住宿服务;住宿服务相关;住宿服务相关", "address": "蓉北商贸大道二段168号7幢", "lng": 104.060333, "lat": 30.713797, "province": "四川省", "city": "成都市", "district": "金牛区" }, "geometry": { "type": "Point", "coordinates": [ 104.060333, 30.713797 ] } },
{ "type": "Feature", "properties": { "name": "海邓宾馆", "type": "住宿服务;宾馆酒店;宾馆酒店", "address": "五福桥东路136号", "lng": 104.063745, "lat": 30.707785, "province": "四川省", "city": "成都市", "district": "金牛区" }, "geometry": { "type": "Point", "coordinates": [ 104.063745, 30.707785 ] } },
{ "type": "Feature", "properties": { "name": "宽席", "type": "住宿服务;宾馆酒店;宾馆酒店", "address": "福源路与蓉北商贸大道二段交叉口西北50米", "lng": 104.059616, "lat": 30.713844, "province": "四川省", "city": "成都市", "district": "金牛区" }, "geometry": { "type": "Point", "coordinates": [ 104.059616, 30.713844 ] } },
{ "type": "Feature", "properties": { "name": "万福大酒店", "type": "住宿服务;宾馆酒店;宾馆酒店", "address": "五块石街道五福桥东", "lng": 104.064601, "lat": 30.712813, "province": "四川省", "city": "成都市", "district": "金牛区" }, "geometry": { "type": "Point", "coordinates": [ 104.064601, 30.712813 ] } },
{ "type": "Feature", "properties": { "name": "格蕾特酒店", "type": "住宿服务;宾馆酒店;三星级宾馆", "address": "五福桥东路9号龙湖北城天街9栋5层", "lng": 104.067456, "lat": 30.712128, "province": "四川省", "city": "成都市", "district": "金牛区" }, "geometry": { "type": "Point", "coordinates": [ 104.067456, 30.712128 ] } },
{ "type": "Feature", "properties": { "name": "君庭酒店(北城店)", "type": "住宿服务;宾馆酒店;宾馆酒店", "address": "五福桥东路9号附138号", "lng": 104.06726, "lat": 30.711834, "province": "四川省", "city": "成都市", "district": "金牛区" }, "geometry": { "type": "Point", "coordinates": [ 104.06726, 30.711834 ] } },
{ "type": "Feature", "properties": { "name": "时光主题酒店(火车北站店)", "type": "住宿服务;宾馆酒店;宾馆酒店", "address": "五块石龙湖北城天街28栋(天桥旁边)", "lng": 104.066646, "lat": 30.711062, "province": "四川省", "city": "成都市", "district": "金牛区" }, "geometry": { "type": "Point", "coordinates": [ 104.066646, 30.711062 ] } },
{ "type": "Feature", "properties": { "name": "锦宏大酒店(八里桥路)", "type": "住宿服务;宾馆酒店;宾馆酒店", "address": "八里桥路204号附1号", "lng": 104.074696, "lat": 30.708305, "province": "四川省", "city": "成都市", "district": "成华区" }, "geometry": { "type": "Point", "coordinates": [ 104.074696, 30.708305 ] } },
{ "type": "Feature", "properties": { "name": "成都十二星座公寓", "type": "住宿服务;住宿服务相关;住宿服务相关", "address": "五福桥北城天街1期9栋7楼", "lng": 104.067301, "lat": 30.711705, "province": "四川省", "city": "成都市", "district": "金牛区" }, "geometry": { "type": "Point", "coordinates": [ 104.067301, 30.711705 ] } },
{ "type": "Feature", "properties": { "name": "成都时光主题酒店", "type": "住宿服务;住宿服务相关;住宿服务相关", "address": "五块石路1号龙湖北城天街2期28栋", "lng": 104.06656, "lat": 30.710364, "province": "四川省", "city": "成都市", "district": "金牛区" }, "geometry": { "type": "Point", "coordinates": [ 104.06656, 30.710364 ] } },
{ "type": "Feature", "properties": { "name": "成都北城锦瑟酒店", "type": "住宿服务;宾馆酒店;宾馆酒店", "address": "五块石蓉北商贸大道一段北城星座32号远东百货13楼(恒业国际市场对面)", "lng": 104.066691, "lat": 30.710813, "province": "四川省", "city": "成都市", "district": "金牛区" }, "geometry": { "type": "Point", "coordinates": [ 104.066691, 30.710813 ] } },
{ "type": "Feature", "properties": { "name": "百亨商务酒店", "type": "住宿服务;宾馆酒店;宾馆酒店", "address": "双荆路181号(百盛远洋旁)", "lng": 104.0825, "lat": 30.710936, "province": "四川省", "city": "成都市", "district": "成华区" }, "geometry": { "type": "Point", "coordinates": [ 104.0825, 30.710936 ] } },
{ "type": "Feature", "properties": { "name": "英明酒店公寓", "type": "住宿服务;宾馆酒店;宾馆酒店", "address": "荆竹坝路91号", "lng": 104.094369, "lat": 30.712453, "province": "四川省", "city": "成都市", "district": "成华区" }, "geometry": { "type": "Point", "coordinates": [ 104.094369, 30.712453 ] } },
{ "type": "Feature", "properties": { "name": "好莱斯登酒店(火车北站店)", "type": "住宿服务;宾馆酒店;宾馆酒店", "address": "双荆路2号附51-57号", "lng": 104.099127, "lat": 30.708519, "province": "四川省", "city": "成都市", "district": "成华区" }, "geometry": { "type": "Point", "coordinates": [ 104.099127, 30.708519 ] } },
{ "type": "Feature", "properties": { "name": "海滨铂雅酒店", "type": "住宿服务;宾馆酒店;四星级宾馆", "address": "昭觉寺南路270号华润熙悦广场1栋11层(近成都动物园)", "lng": 104.103951, "lat": 30.713386, "province": "四川省", "city": "成都市", "district": "成华区" }, "geometry": { "type": "Point", "coordinates": [ 104.103951, 30.713386 ] } },
{ "type": "Feature", "properties": { "name": "博客庄园·禅茶文化精品酒店", "type": "住宿服务;宾馆酒店;宾馆酒店", "address": "昭觉寺南路260号华润熙悦广场2号楼11层(动物园旁)", "lng": 104.103628, "lat": 30.712722, "province": "四川省", "city": "成都市", "district": "成华区" }, "geometry": { "type": "Point", "coordinates": [ 104.103628, 30.712722 ] } },
{ "type": "Feature", "properties": { "name": "汉庭酒店(成都昭觉寺客运站店)", "type": "住宿服务;宾馆酒店;经济型连锁酒店", "address": "双荆路2号(靠近昭觉寺汽车站)", "lng": 104.098939, "lat": 30.708342, "province": "四川省", "city": "成都市", "district": "成华区" }, "geometry": { "type": "Point", "coordinates": [ 104.098939, 30.708342 ] } },
{ "type": "Feature", "properties": { "name": "凤翔商务酒店(荆翠南二街)", "type": "住宿服务;宾馆酒店;宾馆酒店", "address": "荆翠南二街18号(近动物园)", "lng": 104.098762, "lat": 30.715135, "province": "四川省", "city": "成都市", "district": "成华区" }, "geometry": { "type": "Point", "coordinates": [ 104.098762, 30.715135 ] } },
{ "type": "Feature", "properties": { "name": "Hollyston Hotel", "type": "住宿服务;宾馆酒店;宾馆酒店", "address": "昭觉寺南路101号附近", "lng": 104.099443, "lat": 30.708683, "province": "四川省", "city": "成都市", "district": "成华区" }, "geometry": { "type": "Point", "coordinates": [ 104.099443, 30.708683 ] } },
{ "type": "Feature", "properties": { "name": "园宸酒店", "type": "住宿服务;宾馆酒店;宾馆酒店", "address": "双荆路2号16栋7-717号", "lng": 104.099264, "lat": 30.708731, "province": "四川省", "city": "成都市", "district": "成华区" }, "geometry": { "type": "Point", "coordinates": [ 104.099264, 30.708731 ] } },
{ "type": "Feature", "properties": { "name": "尚町酒店", "type": "住宿服务;宾馆酒店;宾馆酒店", "address": "招商雍华府2期13栋2层", "lng": 104.100224, "lat": 30.709382, "province": "四川省", "city": "成都市", "district": "成华区" }, "geometry": { "type": "Point", "coordinates": [ 104.100224, 30.709382 ] } },
{ "type": "Feature", "properties": { "name": "成都酒店", "type": "住宿服务;宾馆酒店;宾馆酒店", "address": "川陕立交金科中心", "lng": 104.104014, "lat": 30.716793, "province": "四川省", "city": "成都市", "district": "成华区" }, "geometry": { "type": "Point", "coordinates": [ 104.104014, 30.716793 ] } },
{ "type": "Feature", "properties": { "name": "亿蓉客栈", "type": "住宿服务;旅馆招待所;旅馆招待所", "address": "中环路双荆路段2号招商雍华府16栋7层", "lng": 104.099127, "lat": 30.70856, "province": "四川省", "city": "成都市", "district": "成华区" }, "geometry": { "type": "Point", "coordinates": [ 104.099127, 30.70856 ] } },
{ "type": "Feature", "properties": { "name": "上东酒店", "type": "住宿服务;宾馆酒店;三星级宾馆", "address": "东紫路666号", "lng": 104.110395, "lat": 30.714505, "province": "四川省", "city": "成都市", "district": "成华区" }, "geometry": { "type": "Point", "coordinates": [ 104.110395, 30.714505 ] } },
{ "type": "Feature", "properties": { "name": "成都安仁酒店", "type": "住宿服务;住宿服务相关;住宿服务相关", "address": "东紫路618号东林商业广场4楼", "lng": 104.110131, "lat": 30.713951, "province": "四川省", "city": "成都市", "district": "成华区" }, "geometry": { "type": "Point", "coordinates": [ 104.110131, 30.713951 ] } },
{ "type": "Feature", "properties": { "name": "海伦春天酒店(成都动物园店)", "type": "住宿服务;宾馆酒店;宾馆酒店", "address": "东紫路618号", "lng": 104.11013, "lat": 30.713951, "province": "四川省", "city": "成都市", "district": "成华区" }, "geometry": { "type": "Point", "coordinates": [ 104.11013, 30.713951 ] } },
{ "type": "Feature", "properties": { "name": "成都豪庭酒店(川陕店)", "type": "住宿服务;宾馆酒店;经济型连锁酒店", "address": "东荆路988号华宇阳光尚座1栋1单元", "lng": 104.115615, "lat": 30.716677, "province": "四川省", "city": "成都市", "district": "成华区" }, "geometry": { "type": "Point", "coordinates": [ 104.115615, 30.716677 ] } },
{ "type": "Feature", "properties": { "name": "7天酒店(成都富森美家居川陕路店)", "type": "住宿服务;宾馆酒店;经济型连锁酒店", "address": "东紫路499号(金科一城3号门对面成都动物园后门隔壁)", "lng": 104.109133, "lat": 30.712136, "province": "四川省", "city": "成都市", "district": "成华区" }, "geometry": { "type": "Point", "coordinates": [ 104.109133, 30.712136 ] } },
{ "type": "Feature", "properties": { "name": "华晨映象商务酒店", "type": "住宿服务;宾馆酒店;宾馆酒店", "address": "东荆路988号华宇阳光尚座1栋", "lng": 104.115771, "lat": 30.716672, "province": "四川省", "city": "成都市", "district": "成华区" }, "geometry": { "type": "Point", "coordinates": [ 104.115771, 30.716672 ] } },
{ "type": "Feature", "properties": { "name": "成都万年青年公寓", "type": "住宿服务;住宿服务相关;住宿服务相关", "address": "东紫路103号", "lng": 104.109358, "lat": 30.709536, "province": "四川省", "city": "成都市", "district": "成华区" }, "geometry": { "type": "Point", "coordinates": [ 104.109358, 30.709536 ] } },
{ "type": "Feature", "properties": { "name": "成都汇缘客栈", "type": "住宿服务;旅馆招待所;旅馆招待所", "address": "东丽街138号金科一城18-2-1504号", "lng": 104.111692, "lat": 30.71064, "province": "四川省", "city": "成都市", "district": "成华区" }, "geometry": { "type": "Point", "coordinates": [ 104.111692, 30.71064 ] } },
{ "type": "Feature", "properties": { "name": "刘拾旅馆餐饮", "type": "住宿服务;旅馆招待所;旅馆招待所", "address": "北三环路四段与北三环路四段出口交叉口东南150米", "lng": 104.125847, "lat": 30.715156, "province": "四川省", "city": "成都市", "district": "成华区" }, "geometry": { "type": "Point", "coordinates": [ 104.125847, 30.715156 ] } },
{ "type": "Feature", "properties": { "name": "海川宾馆(纬一路)", "type": "住宿服务;宾馆酒店;宾馆酒店", "address": "黄田坝经四路118号", "lng": 103.970886, "lat": 30.697951, "province": "四川省", "city": "成都市", "district": "青羊区" }, "geometry": { "type": "Point", "coordinates": [ 103.970886, 30.697951 ] } },
{ "type": "Feature", "properties": { "name": "海川宾馆", "type": "住宿服务;宾馆酒店;宾馆酒店", "address": "黄田坝街道经四路38号", "lng": 103.971965, "lat": 30.698867, "province": "四川省", "city": "成都市", "district": "青羊区" }, "geometry": { "type": "Point", "coordinates": [ 103.971965, 30.698867 ] } },
{ "type": "Feature", "properties": { "name": "成都驿站住宿", "type": "住宿服务;住宿服务相关;住宿服务相关", "address": "清淳家园清淳3街71号", "lng": 103.982859, "lat": 30.704476, "province": "四川省", "city": "成都市", "district": "金牛区" }, "geometry": { "type": "Point", "coordinates": [ 103.982859, 30.704476 ] } },
{ "type": "Feature", "properties": { "name": "汉林酒店", "type": "住宿服务;宾馆酒店;宾馆酒店", "address": "两河路中国小镇A区555号(近两河大道)", "lng": 103.977288, "lat": 30.706079, "province": "四川省", "city": "成都市", "district": "金牛区" }, "geometry": { "type": "Point", "coordinates": [ 103.977288, 30.706079 ] } },
{ "type": "Feature", "properties": { "name": "两河假日酒店", "type": "住宿服务;宾馆酒店;宾馆酒店", "address": "清淳家园中国小镇a区555号附76号", "lng": 103.9779, "lat": 30.70675, "province": "四川省", "city": "成都市", "district": "金牛区" }, "geometry": { "type": "Point", "coordinates": [ 103.9779, 30.70675 ] } },
{ "type": "Feature", "properties": { "name": "黄龙溪明友客栈", "type": "住宿服务;旅馆招待所;旅馆招待所", "address": "黄龙溪黄金路110号", "lng": 103.98375, "lat": 30.70071, "province": "四川省", "city": "成都市", "district": "金牛区" }, "geometry": { "type": "Point", "coordinates": [ 103.98375, 30.70071 ] } },
{ "type": "Feature", "properties": { "name": "两河茶道驿站", "type": "住宿服务;旅馆招待所;旅馆招待所", "address": "淳风路6号", "lng": 103.982412, "lat": 30.703059, "province": "四川省", "city": "成都市", "district": "金牛区" }, "geometry": { "type": "Point", "coordinates": [ 103.982412, 30.703059 ] } },
{ "type": "Feature", "properties": { "name": "鑫沅酒店", "type": "住宿服务;宾馆酒店;宾馆酒店", "address": "金泉街道两河路中国小镇", "lng": 103.976837, "lat": 30.706505, "province": "四川省", "city": "成都市", "district": "金牛区" }, "geometry": { "type": "Point", "coordinates": [ 103.976837, 30.706505 ] } },
{ "type": "Feature", "properties": { "name": "成都两河锦地酒店式公寓", "type": "住宿服务;旅馆招待所;旅馆招待所", "address": "黄金东二路26号两河锦地小区", "lng": 103.99393, "lat": 30.70513, "province": "四川省", "city": "成都市", "district": "金牛区" }, "geometry": { "type": "Point", "coordinates": [ 103.99393, 30.70513 ] } },
{ "type": "Feature", "properties": { "name": "泰瑞酒店", "type": "住宿服务;宾馆酒店;四星级宾馆", "address": "蜀跃路2号附8号", "lng": 104.005789, "lat": 30.705221, "province": "四川省", "city": "成都市", "district": "金牛区" }, "geometry": { "type": "Point", "coordinates": [ 104.005789, 30.705221 ] } },
{ "type": "Feature", "properties": { "name": "成都檀香家庭公寓", "type": "住宿服务;住宿服务相关;住宿服务相关", "address": "蜀跃东路88号檀香社区", "lng": 104.005379, "lat": 30.704739, "province": "四川省", "city": "成都市", "district": "金牛区" }, "geometry": { "type": "Point", "coordinates": [ 104.005379, 30.704739 ] } },
{ "type": "Feature", "properties": { "name": "成都金川旅馆", "type": "住宿服务;住宿服务相关;住宿服务相关", "address": "迎宾大道郎家小区5栋一单元1号", "lng": 104.001035, "lat": 30.700506, "province": "四川省", "city": "成都市", "district": "金牛区" }, "geometry": { "type": "Point", "coordinates": [ 104.001035, 30.700506 ] } },
{ "type": "Feature", "properties": { "name": "成都梧桐客栈", "type": "住宿服务;旅馆招待所;旅馆招待所", "address": "蜀跃路235号檀香花园7栋", "lng": 104.00545, "lat": 30.70362, "province": "四川省", "city": "成都市", "district": "金牛区" }, "geometry": { "type": "Point", "coordinates": [ 104.00545, 30.70362 ] } },
{ "type": "Feature", "properties": { "name": "成都熊猫私房馆青年旅社", "type": "住宿服务;住宿服务相关;住宿服务相关", "address": "蜀汉路羊犀立交旁青房尚瑞天韵3栋2单元2601室", "lng": 104.003426, "lat": 30.70079, "province": "四川省", "city": "成都市", "district": "金牛区" }, "geometry": { "type": "Point", "coordinates": [ 104.003426, 30.70079 ] } },
{ "type": "Feature", "properties": { "name": "碧海云天假日酒店", "type": "住宿服务;宾馆酒店;五星级宾馆", "address": "蜀辉路477号", "lng": 104.008057, "lat": 30.697635, "province": "四川省", "city": "成都市", "district": "青羊区" }, "geometry": { "type": "Point", "coordinates": [ 104.008057, 30.697635 ] } },
{ "type": "Feature", "properties": { "name": "中恒·檀香酒店", "type": "住宿服务;宾馆酒店;四星级宾馆", "address": "蜀跃东路262号", "lng": 104.008688, "lat": 30.704469, "province": "四川省", "city": "成都市", "district": "金牛区" }, "geometry": { "type": "Point", "coordinates": [ 104.008688, 30.704469 ] } },
{ "type": "Feature", "properties": { "name": "金玉大饭店", "type": "住宿服务;宾馆酒店;宾馆酒店", "address": "三环路西五段188号(羊犀立交北内侧,2号地铁线羊犀立交站)", "lng": 104.010952, "lat": 30.702627, "province": "四川省", "city": "成都市", "district": "金牛区" }, "geometry": { "type": "Point", "coordinates": [ 104.010952, 30.702627 ] } },
{ "type": "Feature", "properties": { "name": "宜居家庭客栈", "type": "住宿服务;旅馆招待所;旅馆招待所", "address": "金瑞路118号", "lng": 104.010723, "lat": 30.706673, "province": "四川省", "city": "成都市", "district": "金牛区" }, "geometry": { "type": "Point", "coordinates": [ 104.010723, 30.706673 ] } },
{ "type": "Feature", "properties": { "name": "e家酒店公寓(茶店子客运站店)", "type": "住宿服务;旅馆招待所;旅馆招待所", "address": "金耀路74号", "lng": 104.012048, "lat": 30.706143, "province": "四川省", "city": "成都市", "district": "金牛区" }, "geometry": { "type": "Point", "coordinates": [ 104.012048, 30.706143 ] } },
{ "type": "Feature", "properties": { "name": "馨居公寓", "type": "住宿服务;宾馆酒店;宾馆酒店", "address": "金瑞路118号西岸观邸7幢10层", "lng": 104.012677, "lat": 30.706765, "province": "四川省", "city": "成都市", "district": "金牛区" }, "geometry": { "type": "Point", "coordinates": [ 104.012677, 30.706765 ] } },
{ "type": "Feature", "properties": { "name": "吉祥家庭酒店公寓", "type": "住宿服务;旅馆招待所;旅馆招待所", "address": "茶店子客运站金瑞路118号西岸官邸8栋1层", "lng": 104.011634, "lat": 30.706449, "province": "四川省", "city": "成都市", "district": "金牛区" }, "geometry": { "type": "Point", "coordinates": [ 104.011634, 30.706449 ] } },
{ "type": "Feature", "properties": { "name": "川西客栈", "type": "住宿服务;旅馆招待所;旅馆招待所", "address": "茶店子客运站对面的西岸观邸7栋", "lng": 104.011517, "lat": 30.705945, "province": "四川省", "city": "成都市", "district": "金牛区" }, "geometry": { "type": "Point", "coordinates": [ 104.011517, 30.705945 ] } },
{ "type": "Feature", "properties": { "name": "成都香薰家园公寓", "type": "住宿服务;住宿服务相关;住宿服务相关", "address": "金瑞路118号西岸官邸6栋2单元", "lng": 104.013516, "lat": 30.70676, "province": "四川省", "city": "成都市", "district": "金牛区" }, "geometry": { "type": "Point", "coordinates": [ 104.013516, 30.70676 ] } },
{ "type": "Feature", "properties": { "name": "成都幸福公寓", "type": "住宿服务;住宿服务相关;住宿服务相关", "address": "蜀跃东路253号", "lng": 104.00888, "lat": 30.704669, "province": "四川省", "city": "成都市", "district": "金牛区" }, "geometry": { "type": "Point", "coordinates": [ 104.00888, 30.704669 ] } },
{ "type": "Feature", "properties": { "name": "成都邻家公寓", "type": "住宿服务;住宿服务相关;住宿服务相关", "address": "蜀跃路118号茶店子客运站地铁A出口", "lng": 104.011932, "lat": 30.706247, "province": "四川省", "city": "成都市", "district": "金牛区" }, "geometry": { "type": "Point", "coordinates": [ 104.011932, 30.706247 ] } },
{ "type": "Feature", "properties": { "name": "成都卓玛家庭公寓", "type": "住宿服务;住宿服务相关;住宿服务相关", "address": "羊西线三环外侧迎宾大道(茶店子车站旁)", "lng": 104.00947, "lat": 30.705141, "province": "四川省", "city": "成都市", "district": "金牛区" }, "geometry": { "type": "Point", "coordinates": [ 104.00947, 30.705141 ] } },
{ "type": "Feature", "properties": { "name": "成都西岸家庭精品公寓", "type": "住宿服务;住宿服务相关;住宿服务相关", "address": "金瑞路47号西岸观邸10栋", "lng": 104.010426, "lat": 30.706497, "province": "四川省", "city": "成都市", "district": "金牛区" }, "geometry": { "type": "Point", "coordinates": [ 104.010426, 30.706497 ] } },
{ "type": "Feature", "properties": { "name": "成都好又来客栈茶店子客运站店", "type": "住宿服务;旅馆招待所;旅馆招待所", "address": "金瑞路118号西岸观邸2栋(茶店子客运站旁)", "lng": 104.009014, "lat": 30.704542, "province": "四川省", "city": "成都市", "district": "金牛区" }, "geometry": { "type": "Point", "coordinates": [ 104.009014, 30.704542 ] } },
{ "type": "Feature", "properties": { "name": "成都阳光客栈", "type": "住宿服务;住宿服务相关;住宿服务相关", "address": "金瑞路118号(西岸官邸3号门)", "lng": 104.010431, "lat": 30.706499, "province": "四川省", "city": "成都市", "district": "金牛区" }, "geometry": { "type": "Point", "coordinates": [ 104.010431, 30.706499 ] } },
{ "type": "Feature", "properties": { "name": "成都金川客栈", "type": "住宿服务;住宿服务相关;住宿服务相关", "address": "金泉街道金瑞路118号西岸观邸内", "lng": 104.011072, "lat": 30.706141, "province": "四川省", "city": "成都市", "district": "金牛区" }, "geometry": { "type": "Point", "coordinates": [ 104.011072, 30.706141 ] } },
{ "type": "Feature", "properties": { "name": "英明商务酒店", "type": "住宿服务;宾馆酒店;宾馆酒店", "address": "蜀跃路69号(茶店子车站)", "lng": 104.006566, "lat": 30.706268, "province": "四川省", "city": "成都市", "district": "金牛区" }, "geometry": { "type": "Point", "coordinates": [ 104.006566, 30.706268 ] } },
{ "type": "Feature", "properties": { "name": "成都遂宁客栈", "type": "住宿服务;住宿服务相关;住宿服务相关", "address": "金瑞路120号西岸观邸8栋", "lng": 104.010431, "lat": 30.706499, "province": "四川省", "city": "成都市", "district": "金牛区" }, "geometry": { "type": "Point", "coordinates": [ 104.010431, 30.706499 ] } },
{ "type": "Feature", "properties": { "name": "成都西岸家庭公寓", "type": "住宿服务;住宿服务相关;住宿服务相关", "address": "茶店子客运站金瑞路118号10幢", "lng": 104.010431, "lat": 30.706499, "province": "四川省", "city": "成都市", "district": "金牛区" }, "geometry": { "type": "Point", "coordinates": [ 104.010431, 30.706499 ] } },
{ "type": "Feature", "properties": { "name": "茶店子客运站金元客栈", "type": "住宿服务;旅馆招待所;旅馆招待所", "address": "蜀跃东路235号", "lng": 104.009005, "lat": 30.704403, "province": "四川省", "city": "成都市", "district": "金牛区" }, "geometry": { "type": "Point", "coordinates": [ 104.009005, 30.704403 ] } },
{ "type": "Feature", "properties": { "name": "成都如意驿站家庭旅馆", "type": "住宿服务;旅馆招待所;旅馆招待所", "address": "金瑞路118号西岸观邸8栋1单元(茶店子客运站地铁A出口)", "lng": 104.01153, "lat": 30.70604, "province": "四川省", "city": "成都市", "district": "金牛区" }, "geometry": { "type": "Point", "coordinates": [ 104.01153, 30.70604 ] } },
{ "type": "Feature", "properties": { "name": "成都温馨客栈(茶店子店)", "type": "住宿服务;住宿服务相关;住宿服务相关", "address": "茶店子客运站蜀跃路1号", "lng": 104.013705, "lat": 30.705227, "province": "四川省", "city": "成都市", "district": "金牛区" }, "geometry": { "type": "Point", "coordinates": [ 104.013705, 30.705227 ] } },
{ "type": "Feature", "properties": { "name": "嘉嘉旅馆", "type": "住宿服务;旅馆招待所;旅馆招待所", "address": "蜀跃东路檀香花园5栋1106", "lng": 104.008849, "lat": 30.703672, "province": "四川省", "city": "成都市", "district": "金牛区" }, "geometry": { "type": "Point", "coordinates": [ 104.008849, 30.703672 ] } },
{ "type": "Feature", "properties": { "name": "成都茶店子车站吉祥客栈", "type": "住宿服务;住宿服务相关;住宿服务相关", "address": "茶店子客运站蜀跃路300号附近", "lng": 104.01067, "lat": 30.706601, "province": "四川省", "city": "成都市", "district": "金牛区" }, "geometry": { "type": "Point", "coordinates": [ 104.01067, 30.706601 ] } },
{ "type": "Feature", "properties": { "name": "若尔盖客栈", "type": "住宿服务;旅馆招待所;旅馆招待所", "address": "金瑞路118号(汽车站旁边)", "lng": 104.012815, "lat": 30.70666, "province": "四川省", "city": "成都市", "district": "金牛区" }, "geometry": { "type": "Point", "coordinates": [ 104.012815, 30.70666 ] } },
{ "type": "Feature", "properties": { "name": "成都星缘公寓", "type": "住宿服务;住宿服务相关;住宿服务相关", "address": "茶店子客运站旁地铁A口西岸观邸", "lng": 104.010555, "lat": 30.706388, "province": "四川省", "city": "成都市", "district": "金牛区" }, "geometry": { "type": "Point", "coordinates": [ 104.010555, 30.706388 ] } },
{ "type": "Feature", "properties": { "name": "青草家庭公寓(成都茶店子客运站店)", "type": "住宿服务;住宿服务相关;住宿服务相关", "address": "金瑞路118号(茶店子地铁站A口前10米)", "lng": 104.010455, "lat": 30.706513, "province": "四川省", "city": "成都市", "district": "金牛区" }, "geometry": { "type": "Point", "coordinates": [ 104.010455, 30.706513 ] } },
{ "type": "Feature", "properties": { "name": "成都明月客栈(茶店子车站店)", "type": "住宿服务;住宿服务相关;住宿服务相关", "address": "金瑞路118号西岸观邸小区(近茶店子客运站,茶店子A口)", "lng": 104.011541, "lat": 30.705969, "province": "四川省", "city": "成都市", "district": "金牛区" }, "geometry": { "type": "Point", "coordinates": [ 104.011541, 30.705969 ] } },
{ "type": "Feature", "properties": { "name": "成都心雨客栈", "type": "住宿服务;住宿服务相关;住宿服务相关", "address": "金瑞路118号(茶店子客运站地铁A口)", "lng": 104.01043, "lat": 30.7065, "province": "四川省", "city": "成都市", "district": "金牛区" }, "geometry": { "type": "Point", "coordinates": [ 104.01043, 30.7065 ] } },
{ "type": "Feature", "properties": { "name": "成都川西背包客旅舍", "type": "住宿服务;住宿服务相关;住宿服务相关", "address": "茶店子车站旁", "lng": 104.010367, "lat": 30.706558, "province": "四川省", "city": "成都市", "district": "金牛区" }, "geometry": { "type": "Point", "coordinates": [ 104.010367, 30.706558 ] } },
{ "type": "Feature", "properties": { "name": "成都二妹家庭公寓(原檀香居)", "type": "住宿服务;住宿服务相关;住宿服务相关", "address": "蜀跃东路260号5栋8楼", "lng": 104.008938, "lat": 30.704555, "province": "四川省", "city": "成都市", "district": "金牛区" }, "geometry": { "type": "Point", "coordinates": [ 104.008938, 30.704555 ] } },
{ "type": "Feature", "properties": { "name": "成都温馨旅途精品公寓", "type": "住宿服务;住宿服务相关;住宿服务相关", "address": "金瑞路188号西岸观邸7栋1-1001茶店子地铁站A口", "lng": 104.01263, "lat": 30.70638, "province": "四川省", "city": "成都市", "district": "金牛区" }, "geometry": { "type": "Point", "coordinates": [ 104.01263, 30.70638 ] } },
{ "type": "Feature", "properties": { "name": "成都芒果客栈", "type": "住宿服务;住宿服务相关;住宿服务相关", "address": "金瑞路118号(西岸观邸9幢)", "lng": 104.013364, "lat": 30.705397, "province": "四川省", "city": "成都市", "district": "金牛区" }, "geometry": { "type": "Point", "coordinates": [ 104.013364, 30.705397 ] } },
{ "type": "Feature", "properties": { "name": "成都东女之家公寓", "type": "住宿服务;旅馆招待所;旅馆招待所", "address": "金瑞路188号西岸观邸小区18楼5栋2单元(茶店子A口旁10米)", "lng": 104.010432, "lat": 30.706491, "province": "四川省", "city": "成都市", "district": "金牛区" }, "geometry": { "type": "Point", "coordinates": [ 104.010432, 30.706491 ] } },
{ "type": "Feature", "properties": { "name": "成都驻色达客栈", "type": "住宿服务;住宿服务相关;住宿服务相关", "address": "金卉路118号(茶店子客运站地铁A口对面)", "lng": 104.011028, "lat": 30.705779, "province": "四川省", "city": "成都市", "district": "金牛区" }, "geometry": { "type": "Point", "coordinates": [ 104.011028, 30.705779 ] } },
{ "type": "Feature", "properties": { "name": "成都茶店子车站乐都客栈", "type": "住宿服务;住宿服务相关;住宿服务相关", "address": "蜀跃东路262号", "lng": 104.009005, "lat": 30.704298, "province": "四川省", "city": "成都市", "district": "金牛区" }, "geometry": { "type": "Point", "coordinates": [ 104.009005, 30.704298 ] } },
{ "type": "Feature", "properties": { "name": "成都迎宾驿站", "type": "住宿服务;住宿服务相关;住宿服务相关", "address": "金耀路31号", "lng": 104.013173, "lat": 30.706791, "province": "四川省", "city": "成都市", "district": "金牛区" }, "geometry": { "type": "Point", "coordinates": [ 104.013173, 30.706791 ] } },
{ "type": "Feature", "properties": { "name": "悠悠客栈(成都茶店子车站店)", "type": "住宿服务;住宿服务相关;住宿服务相关", "address": "金瑞路118号", "lng": 104.01043, "lat": 30.7065, "province": "四川省", "city": "成都市", "district": "金牛区" }, "geometry": { "type": "Point", "coordinates": [ 104.01043, 30.7065 ] } },
{ "type": "Feature", "properties": { "name": "璃雅小筑青年旅舍", "type": "住宿服务;旅馆招待所;青年旅舍", "address": "茶店子客运站蜀跃东路138号翡翠海湾", "lng": 104.00656, "lat": 30.703758, "province": "四川省", "city": "成都市", "district": "金牛区" }, "geometry": { "type": "Point", "coordinates": [ 104.00656, 30.703758 ] } },
{ "type": "Feature", "properties": { "name": "成都乐家公寓", "type": "住宿服务;住宿服务相关;住宿服务相关", "address": "金瑞路118号(茶店子地铁站A口旁,西岸官邸小区7幢)", "lng": 104.01283, "lat": 30.70677, "province": "四川省", "city": "成都市", "district": "金牛区" }, "geometry": { "type": "Point", "coordinates": [ 104.01283, 30.70677 ] } },
{ "type": "Feature", "properties": { "name": "成都梧桐家庭公寓", "type": "住宿服务;住宿服务相关;住宿服务相关", "address": "金瑞路188号(茶店子地铁站A口对面)", "lng": 104.011237, "lat": 30.705558, "province": "四川省", "city": "成都市", "district": "金牛区" }, "geometry": { "type": "Point", "coordinates": [ 104.011237, 30.705558 ] } },
{ "type": "Feature", "properties": { "name": "佳家客栈", "type": "住宿服务;旅馆招待所;旅馆招待所", "address": "茶店子客运站金瑞路118号西岸观邸内", "lng": 104.01193, "lat": 30.706766, "province": "四川省", "city": "成都市", "district": "金牛区" }, "geometry": { "type": "Point", "coordinates": [ 104.01193, 30.706766 ] } },
{ "type": "Feature", "properties": { "name": "成都快捷青年公寓", "type": "住宿服务;住宿服务相关;住宿服务相关", "address": "金卉路118号西岸观邸小区6栋1单元(茶店子地铁A口)", "lng": 104.011779, "lat": 30.706244, "province": "四川省", "city": "成都市", "district": "金牛区" }, "geometry": { "type": "Point", "coordinates": [ 104.011779, 30.706244 ] } },
{ "type": "Feature", "properties": { "name": "成都怡家客栈(茶店子车站店)", "type": "住宿服务;住宿服务相关;住宿服务相关", "address": "金卉南路118号,西岸观邸9号楼2单元2204室(茶店子车站A出口)", "lng": 104.011988, "lat": 30.706564, "province": "四川省", "city": "成都市", "district": "金牛区" }, "geometry": { "type": "Point", "coordinates": [ 104.011988, 30.706564 ] } },
{ "type": "Feature", "properties": { "name": "成都概念家庭公寓(茶店子店)", "type": "住宿服务;旅馆招待所;旅馆招待所", "address": "西岸观邸5栋1单元(茶店子公交车站对面)", "lng": 104.012091, "lat": 30.706519, "province": "四川省", "city": "成都市", "district": "金牛区" }, "geometry": { "type": "Point", "coordinates": [ 104.012091, 30.706519 ] } },
{ "type": "Feature", "properties": { "name": "成都途自在精品公寓", "type": "住宿服务;住宿服务相关;住宿服务相关", "address": "蜀跃东路213号(紧邻茶店子地铁站A口,中恒.檀香酒店斜对面)", "lng": 104.009683, "lat": 30.705297, "province": "四川省", "city": "成都市", "district": "金牛区" }, "geometry": { "type": "Point", "coordinates": [ 104.009683, 30.705297 ] } },
{ "type": "Feature", "properties": { "name": "成都印象客栈", "type": "住宿服务;旅馆招待所;旅馆招待所", "address": "蜀跃东路209号鲜派水果店旁(茶店子车站旁)", "lng": 104.00947, "lat": 30.705142, "province": "四川省", "city": "成都市", "district": "金牛区" }, "geometry": { "type": "Point", "coordinates": [ 104.00947, 30.705142 ] } },
{ "type": "Feature", "properties": { "name": "成都星宸驿站(茶店子车站店)", "type": "住宿服务;住宿服务相关;住宿服务相关", "address": "金瑞路118号西岸观邸5栋2单元606号茶店子地铁A出口", "lng": 104.011692, "lat": 30.706482, "province": "四川省", "city": "成都市", "district": "金牛区" }, "geometry": { "type": "Point", "coordinates": [ 104.011692, 30.706482 ] } },
{ "type": "Feature", "properties": { "name": "成都随缘客栈", "type": "住宿服务;住宿服务相关;住宿服务相关", "address": "金耀路18号西岸观邸6栋2单元", "lng": 104.01317, "lat": 30.706974, "province": "四川省", "city": "成都市", "district": "金牛区" }, "geometry": { "type": "Point", "coordinates": [ 104.01317, 30.706974 ] } },
{ "type": "Feature", "properties": { "name": "成都蓉城家庭公寓", "type": "住宿服务;住宿服务相关;住宿服务相关", "address": "金瑞路118号西岸观邸3栋一单元30楼", "lng": 104.011974, "lat": 30.706719, "province": "四川省", "city": "成都市", "district": "金牛区" }, "geometry": { "type": "Point", "coordinates": [ 104.011974, 30.706719 ] } },
{ "type": "Feature", "properties": { "name": "成都蓉城家庭公寓", "type": "住宿服务;住宿服务相关;住宿服务相关", "address": "金瑞路118号西岸观邸3栋一单元30楼", "lng": 104.011974, "lat": 30.706719, "province": "四川省", "city": "成都市", "district": "金牛区" }, "geometry": { "type": "Point", "coordinates": [ 104.011974, 30.706719 ] } },
{ "type": "Feature", "properties": { "name": "泽姐家庭公寓", "type": "住宿服务;旅馆招待所;旅馆招待所", "address": "羊西线三环外侧(茶店子车站旁)", "lng": 104.010755, "lat": 30.706613, "province": "四川省", "city": "成都市", "district": "金牛区" }, "geometry": { "type": "Point", "coordinates": [ 104.010755, 30.706613 ] } },
{ "type": "Feature", "properties": { "name": "成都格桑青年旅社", "type": "住宿服务;住宿服务相关;住宿服务相关", "address": "金瑞路118号西岸官邸(茶店子地铁站A口)", "lng": 104.010431, "lat": 30.706499, "province": "四川省", "city": "成都市", "district": "金牛区" }, "geometry": { "type": "Point", "coordinates": [ 104.010431, 30.706499 ] } },
{ "type": "Feature", "properties": { "name": "成都茶店子客运站幸福公寓", "type": "住宿服务;宾馆酒店;宾馆酒店", "address": "金瑞路118号茶店子公交站对面", "lng": 104.012311, "lat": 30.706637, "province": "四川省", "city": "成都市", "district": "金牛区" }, "geometry": { "type": "Point", "coordinates": [ 104.012311, 30.706637 ] } },
{ "type": "Feature", "properties": { "name": "成都爱家公寓", "type": "住宿服务;住宿服务相关;住宿服务相关", "address": "茶店子客运站西岸官邸", "lng": 104.010538, "lat": 30.706404, "province": "四川省", "city": "成都市", "district": "金牛区" }, "geometry": { "type": "Point", "coordinates": [ 104.010538, 30.706404 ] } },
{ "type": "Feature", "properties": { "name": "成都简约家庭公寓", "type": "住宿服务;住宿服务相关;住宿服务相关", "address": "金泉街道西岸观邸(茶店子客运站地铁A出口正对面)", "lng": 104.012108, "lat": 30.706517, "province": "四川省", "city": "成都市", "district": "金牛区" }, "geometry": { "type": "Point", "coordinates": [ 104.012108, 30.706517 ] } },
{ "type": "Feature", "properties": { "name": "成都宜家客栈", "type": "住宿服务;住宿服务相关;住宿服务相关", "address": "茶店子车站金瑞路118号西岸观邸二期4栋1单元(地铁茶店子客运站A出口)", "lng": 104.010582, "lat": 30.706402, "province": "四川省", "city": "成都市", "district": "金牛区" }, "geometry": { "type": "Point", "coordinates": [ 104.010582, 30.706402 ] } },
{ "type": "Feature", "properties": { "name": "成都舒心客栈", "type": "住宿服务;住宿服务相关;住宿服务相关", "address": "金耀路118号(茶店子客运站地铁A口西岸观邸9栋1单元)", "lng": 104.011002, "lat": 30.70645, "province": "四川省", "city": "成都市", "district": "金牛区" }, "geometry": { "type": "Point", "coordinates": [ 104.011002, 30.70645 ] } },
{ "type": "Feature", "properties": { "name": "故事家家庭客栈", "type": "住宿服务;旅馆招待所;青年旅舍", "address": "茶店子客运站地铁A口", "lng": 104.013546, "lat": 30.705332, "province": "四川省", "city": "成都市", "district": "金牛区" }, "geometry": { "type": "Point", "coordinates": [ 104.013546, 30.705332 ] } },
{ "type": "Feature", "properties": { "name": "成都茶店子居佳公寓", "type": "住宿服务;住宿服务相关;住宿服务相关", "address": "金瑞路118号西岸观邸小区(茶店子公交站对面100米)", "lng": 104.010431, "lat": 30.706499, "province": "四川省", "city": "成都市", "district": "金牛区" }, "geometry": { "type": "Point", "coordinates": [ 104.010431, 30.706499 ] } },
{ "type": "Feature", "properties": { "name": "成都家园公寓茶店子店", "type": "住宿服务;住宿服务相关;住宿服务相关", "address": "金泉街道金瑞路118号西岸观邸6幢1单元", "lng": 104.013516, "lat": 30.706761, "province": "四川省", "city": "成都市", "district": "金牛区" }, "geometry": { "type": "Point", "coordinates": [ 104.013516, 30.706761 ] } },
{ "type": "Feature", "properties": { "name": "成都平安客栈", "type": "住宿服务;旅馆招待所;旅馆招待所", "address": "金瑞路118号、茶店子公交总站", "lng": 104.01176, "lat": 30.70605, "province": "四川省", "city": "成都市", "district": "金牛区" }, "geometry": { "type": "Point", "coordinates": [ 104.01176, 30.70605 ] } },
{ "type": "Feature", "properties": { "name": "成都来福客栈", "type": "住宿服务;住宿服务相关;住宿服务相关", "address": "蜀跃路262号檀香花园2栋2单元20层", "lng": 104.008785, "lat": 30.704634, "province": "四川省", "city": "成都市", "district": "金牛区" }, "geometry": { "type": "Point", "coordinates": [ 104.008785, 30.704634 ] } },
{ "type": "Feature", "properties": { "name": "成都繁花落客栈", "type": "住宿服务;住宿服务相关;住宿服务相关", "address": "蜀跃路138号茶店子翡翠海湾", "lng": 104.00673, "lat": 30.703827, "province": "四川省", "city": "成都市", "district": "金牛区" }, "geometry": { "type": "Point", "coordinates": [ 104.00673, 30.703827 ] } },
{ "type": "Feature", "properties": { "name": "庭悦旅社", "type": "住宿服务;旅馆招待所;旅馆招待所", "address": "金卉南路茶店子车站地铁A口旁", "lng": 104.01153, "lat": 30.70596, "province": "四川省", "city": "成都市", "district": "金牛区" }, "geometry": { "type": "Point", "coordinates": [ 104.01153, 30.70596 ] } },
{ "type": "Feature", "properties": { "name": "成都眉山客栈", "type": "住宿服务;住宿服务相关;住宿服务相关", "address": "蜀跃东路262号檀香花园", "lng": 104.00908, "lat": 30.704198, "province": "四川省", "city": "成都市", "district": "金牛区" }, "geometry": { "type": "Point", "coordinates": [ 104.00908, 30.704198 ] } },
{ "type": "Feature", "properties": { "name": "成都海洋家庭公寓(茶店子车站店)", "type": "住宿服务;住宿服务相关;住宿服务相关", "address": "金卉南路15号(茶店子客运站旁,地铁2号线茶店子A出口)", "lng": 104.01218, "lat": 30.706231, "province": "四川省", "city": "成都市", "district": "金牛区" }, "geometry": { "type": "Point", "coordinates": [ 104.01218, 30.706231 ] } },
{ "type": "Feature", "properties": { "name": "成都爱客栈", "type": "住宿服务;住宿服务相关;住宿服务相关", "address": "金瑞路茶店子客运站", "lng": 104.013228, "lat": 30.705417, "province": "四川省", "city": "成都市", "district": "金牛区" }, "geometry": { "type": "Point", "coordinates": [ 104.013228, 30.705417 ] } },
{ "type": "Feature", "properties": { "name": "成都避风港家庭公寓", "type": "住宿服务;住宿服务相关;住宿服务相关", "address": "金瑞路16号", "lng": 104.011598, "lat": 30.706006, "province": "四川省", "city": "成都市", "district": "金牛区" }, "geometry": { "type": "Point", "coordinates": [ 104.011598, 30.706006 ] } },
{ "type": "Feature", "properties": { "name": "成都红运客栈", "type": "住宿服务;住宿服务相关;住宿服务相关", "address": "茶店子西岸观邸", "lng": 104.010956, "lat": 30.706162, "province": "四川省", "city": "成都市", "district": "金牛区" }, "geometry": { "type": "Point", "coordinates": [ 104.010956, 30.706162 ] } },
{ "type": "Feature", "properties": { "name": "成都驿旅阳光家庭公寓", "type": "住宿服务;住宿服务相关;住宿服务相关", "address": "茶店子西岸观邸9栋1单元1504", "lng": 104.011734, "lat": 30.706964, "province": "四川省", "city": "成都市", "district": "金牛区" }, "geometry": { "type": "Point", "coordinates": [ 104.011734, 30.706964 ] } },
{ "type": "Feature", "properties": { "name": "成都二娃客栈茶店子车站店", "type": "住宿服务;住宿服务相关;住宿服务相关", "address": "金瑞路118号(茶店子地铁站A口旁)", "lng": 104.011746, "lat": 30.706259, "province": "四川省", "city": "成都市", "district": "金牛区" }, "geometry": { "type": "Point", "coordinates": [ 104.011746, 30.706259 ] } },
{ "type": "Feature", "properties": { "name": "成都西遇客栈(茶店子车站店)", "type": "住宿服务;住宿服务相关;住宿服务相关", "address": "金瑞路118号(茶店子客运站旁,茶店子地铁站a口附近)西岸观邸底商E家酒店公寓隔壁", "lng": 104.011847, "lat": 30.706267, "province": "四川省", "city": "成都市", "district": "金牛区" }, "geometry": { "type": "Point", "coordinates": [ 104.011847, 30.706267 ] } },
{ "type": "Feature", "properties": { "name": "成都星期八公寓", "type": "住宿服务;住宿服务相关;住宿服务相关", "address": "金瑞路118号西岸观邸8栋306(茶店子公交车对面)", "lng": 104.01191, "lat": 30.70642, "province": "四川省", "city": "成都市", "district": "金牛区" }, "geometry": { "type": "Point", "coordinates": [ 104.01191, 30.70642 ] } },
{ "type": "Feature", "properties": { "name": "成都好又来公寓", "type": "住宿服务;住宿服务相关;住宿服务相关", "address": "金瑞路118号西岸观邸", "lng": 104.01188, "lat": 30.706979, "province": "四川省", "city": "成都市", "district": "金牛区" }, "geometry": { "type": "Point", "coordinates": [ 104.01188, 30.706979 ] } },
{ "type": "Feature", "properties": { "name": "成都菩提经舍客栈", "type": "住宿服务;住宿服务相关;住宿服务相关", "address": "茶店子客运站金瑞路38号", "lng": 104.013228, "lat": 30.705417, "province": "四川省", "city": "成都市", "district": "金牛区" }, "geometry": { "type": "Point", "coordinates": [ 104.013228, 30.705417 ] } },
{ "type": "Feature", "properties": { "name": "成都卓玛公寓", "type": "住宿服务;住宿服务相关;住宿服务相关", "address": "金瑞路118号西岸观邸8栋1单元", "lng": 104.011594, "lat": 30.706294, "province": "四川省", "city": "成都市", "district": "金牛区" }, "geometry": { "type": "Point", "coordinates": [ 104.011594, 30.706294 ] } },
{ "type": "Feature", "properties": { "name": "成都荣富客栈", "type": "住宿服务;住宿服务相关;住宿服务相关", "address": "金瑞路118号西岸观邸9栋", "lng": 104.010941, "lat": 30.70643, "province": "四川省", "city": "成都市", "district": "金牛区" }, "geometry": { "type": "Point", "coordinates": [ 104.010941, 30.70643 ] } },
{ "type": "Feature", "properties": { "name": "成都四姑娘山背包客旅舍", "type": "住宿服务;住宿服务相关;住宿服务相关", "address": "金瑞路118号(茶店子地铁A口下车处)", "lng": 104.011428, "lat": 30.705784, "province": "四川省", "city": "成都市", "district": "金牛区" }, "geometry": { "type": "Point", "coordinates": [ 104.011428, 30.705784 ] } },
{ "type": "Feature", "properties": { "name": "成都808客栈", "type": "住宿服务;住宿服务相关;住宿服务相关", "address": "蜀跃东路檀香花园262号(体育彩票店旁)", "lng": 104.008258, "lat": 30.704181, "province": "四川省", "city": "成都市", "district": "金牛区" }, "geometry": { "type": "Point", "coordinates": [ 104.008258, 30.704181 ] } },
{ "type": "Feature", "properties": { "name": "温馨公寓", "type": "住宿服务;旅馆招待所;旅馆招待所", "address": "金卉路118号西岸观邸6栋1单元(地铁A出口)", "lng": 104.01317, "lat": 30.706974, "province": "四川省", "city": "成都市", "district": "金牛区" }, "geometry": { "type": "Point", "coordinates": [ 104.01317, 30.706974 ] } },
{ "type": "Feature", "properties": { "name": "成都草登客栈", "type": "住宿服务;住宿服务相关;住宿服务相关", "address": "蜀跃路6号", "lng": 104.008053, "lat": 30.706304, "province": "四川省", "city": "成都市", "district": "金牛区" }, "geometry": { "type": "Point", "coordinates": [ 104.008053, 30.706304 ] } },
{ "type": "Feature", "properties": { "name": "成都马大姐家庭客栈", "type": "住宿服务;旅馆招待所;旅馆招待所", "address": "蜀跃东路", "lng": 104.012112, "lat": 30.706226, "province": "四川省", "city": "成都市", "district": "金牛区" }, "geometry": { "type": "Point", "coordinates": [ 104.012112, 30.706226 ] } },
{ "type": "Feature", "properties": { "name": "松潘客栈", "type": "住宿服务;旅馆招待所;旅馆招待所", "address": "金瑞路118号", "lng": 104.010529, "lat": 30.706687, "province": "四川省", "city": "成都市", "district": "金牛区" }, "geometry": { "type": "Point", "coordinates": [ 104.010529, 30.706687 ] } },
{ "type": "Feature", "properties": { "name": "成都32号客栈", "type": "住宿服务;住宿服务相关;住宿服务相关", "address": "蜀跃东路檀香花园", "lng": 104.008584, "lat": 30.704396, "province": "四川省", "city": "成都市", "district": "金牛区" }, "geometry": { "type": "Point", "coordinates": [ 104.008584, 30.704396 ] } },
{ "type": "Feature", "properties": { "name": "唯达公寓", "type": "住宿服务;宾馆酒店;宾馆酒店", "address": "蜀跃路248号", "lng": 104.008819, "lat": 30.706975, "province": "四川省", "city": "成都市", "district": "金牛区" }, "geometry": { "type": "Point", "coordinates": [ 104.008819, 30.706975 ] } },
{ "type": "Feature", "properties": { "name": "COCO小屋(成都蜀明西路店)", "type": "住宿服务;住宿服务相关;住宿服务相关", "address": "茶店子街道蜀明西路千和茗居", "lng": 104.012373, "lat": 30.698158, "province": "四川省", "city": "成都市", "district": "金牛区" }, "geometry": { "type": "Point", "coordinates": [ 104.012373, 30.698158 ] } },
{ "type": "Feature", "properties": { "name": "成都真心客栈普罗旺斯店", "type": "住宿服务;住宿服务相关;住宿服务相关", "address": "蜀跃东路266号普罗旺斯", "lng": 104.009785, "lat": 30.705421, "province": "四川省", "city": "成都市", "district": "金牛区" }, "geometry": { "type": "Point", "coordinates": [ 104.009785, 30.705421 ] } },
{ "type": "Feature", "properties": { "name": "成都发美精品公寓(茶店子车站店)", "type": "住宿服务;住宿服务相关;住宿服务相关", "address": "金卉南路11号", "lng": 104.01138, "lat": 30.705108, "province": "四川省", "city": "成都市", "district": "金牛区" }, "geometry": { "type": "Point", "coordinates": [ 104.01138, 30.705108 ] } },
{ "type": "Feature", "properties": { "name": "丹巴驿站", "type": "住宿服务;宾馆酒店;宾馆酒店", "address": "金瑞路118号西岸观邸7栋(茶店子客运站旁)", "lng": 104.010432, "lat": 30.706497, "province": "四川省", "city": "成都市", "district": "金牛区" }, "geometry": { "type": "Point", "coordinates": [ 104.010432, 30.706497 ] } },
{ "type": "Feature", "properties": { "name": "成都若尔盖客栈", "type": "住宿服务;住宿服务相关;住宿服务相关", "address": "蜀跃路235号", "lng": 104.007633, "lat": 30.706143, "province": "四川省", "city": "成都市", "district": "金牛区" }, "geometry": { "type": "Point", "coordinates": [ 104.007633, 30.706143 ] } },
{ "type": "Feature", "properties": { "name": "成都驻九寨青年旅舍", "type": "住宿服务;旅馆招待所;青年旅舍", "address": "金瑞路118号(茶店子车站旁地铁A出口)", "lng": 104.01057, "lat": 30.706249, "province": "四川省", "city": "成都市", "district": "金牛区" }, "geometry": { "type": "Point", "coordinates": [ 104.01057, 30.706249 ] } },
{ "type": "Feature", "properties": { "name": "成都茶店子车站快乐驿站公寓", "type": "住宿服务;住宿服务相关;住宿服务相关", "address": "金耀路47号7栋1单元106室", "lng": 104.010432, "lat": 30.706499, "province": "四川省", "city": "成都市", "district": "金牛区" }, "geometry": { "type": "Point", "coordinates": [ 104.010432, 30.706499 ] } },