{
"type": "FeatureCollection",
"name": "科教文化",
"crs": { "type": "name", "properties": { "name": "urn:ogc:def:crs:OGC:1.3:CRS84" } },
"features": [
{ "type": "Feature", "properties": { "name": "尊悦文化传播有限公司", "type": "科教文化服务;科教文化场所;科教文化场所", "address": "合作街道高新西区西芯大道1号皇冠假日酒店负一楼", "lng": 103.973542, "lat": 30.728448, "province": "四川省", "city": "成都市", "district": "郫县" }, "geometry": { "type": "Point", "coordinates": [ 103.973542, 30.728448 ] } },
{ "type": "Feature", "properties": { "name": "电子科技大学成都学院(东北1门)", "type": "科教文化服务;学校;高等院校|通行设施;临街院门;临街院门", "address": "高新西区百叶路1号", "lng": 103.968056, "lat": 30.729099, "province": "四川省", "city": "成都市", "district": "郫县" }, "geometry": { "type": "Point", "coordinates": [ 103.968056, 30.729099 ] } },
{ "type": "Feature", "properties": { "name": "电子科技大学成都学院(东北2门)", "type": "科教文化服务;学校;高等院校|通行设施;临街院门;临街院门", "address": "百叶路1号", "lng": 103.96604, "lat": 30.730384, "province": "四川省", "city": "成都市", "district": "郫县" }, "geometry": { "type": "Point", "coordinates": [ 103.96604, 30.730384 ] } },
{ "type": "Feature", "properties": { "name": "电子科技大学成都学院东教B", "type": "科教文化服务;学校;高等院校", "address": "高新区百叶路电子科技大学成都学院", "lng": 103.967493, "lat": 30.72828, "province": "四川省", "city": "成都市", "district": "郫县" }, "geometry": { "type": "Point", "coordinates": [ 103.967493, 30.72828 ] } },
{ "type": "Feature", "properties": { "name": "电子科技大学成都学院东教A", "type": "科教文化服务;学校;高等院校", "address": "高新区百叶路电子科技大学成都学院", "lng": 103.966837, "lat": 30.728517, "province": "四川省", "city": "成都市", "district": "郫县" }, "geometry": { "type": "Point", "coordinates": [ 103.966837, 30.728517 ] } },
{ "type": "Feature", "properties": { "name": "电子科技大学成都学院实验大楼", "type": "科教文化服务;学校;高等院校", "address": "合作街道高新西区百叶路1号电子科大", "lng": 103.96655, "lat": 30.727898, "province": "四川省", "city": "成都市", "district": "郫县" }, "geometry": { "type": "Point", "coordinates": [ 103.96655, 30.727898 ] } },
{ "type": "Feature", "properties": { "name": "电子科技大学成都学院办公楼(科创路)", "type": "科教文化服务;学校;高等院校", "address": "新力路与百叶路交叉口东南200米", "lng": 103.967104, "lat": 30.729309, "province": "四川省", "city": "成都市", "district": "郫县" }, "geometry": { "type": "Point", "coordinates": [ 103.967104, 30.729309 ] } },
{ "type": "Feature", "properties": { "name": "电子科技大学成都学院大学生综合素质导航中心", "type": "科教文化服务;学校;高等院校", "address": "蓝岸街一段与新川路交叉口西北150米", "lng": 103.970141, "lat": 30.727705, "province": "四川省", "city": "成都市", "district": "郫县" }, "geometry": { "type": "Point", "coordinates": [ 103.970141, 30.727705 ] } },
{ "type": "Feature", "properties": { "name": "电子科技大学成都学院学生活动中心", "type": "科教文化服务;科教文化场所;科教文化场所", "address": "蓝岸街一段与新川路交叉口西北150米", "lng": 103.970126, "lat": 30.727727, "province": "四川省", "city": "成都市", "district": "郫县" }, "geometry": { "type": "Point", "coordinates": [ 103.970126, 30.727727 ] } },
{ "type": "Feature", "properties": { "name": "北大公学幼儿园", "type": "科教文化服务;学校;幼儿园", "address": "西芯大道1号新希望皇冠国际社区", "lng": 103.969586, "lat": 30.728943, "province": "四川省", "city": "成都市", "district": "郫县" }, "geometry": { "type": "Point", "coordinates": [ 103.969586, 30.728943 ] } },
{ "type": "Feature", "properties": { "name": "小象艺术", "type": "科教文化服务;美术馆;美术馆", "address": "天目路77号", "lng": 103.975895, "lat": 30.731287, "province": "四川省", "city": "成都市", "district": "金牛区" }, "geometry": { "type": "Point", "coordinates": [ 103.975895, 30.731287 ] } },
{ "type": "Feature", "properties": { "name": "成都高新皇冠假日酒店-会议厅", "type": "科教文化服务;会展中心;会展中心", "address": "高新西区西芯大道1号", "lng": 103.97389, "lat": 30.7284, "province": "四川省", "city": "成都市", "district": "金牛区" }, "geometry": { "type": "Point", "coordinates": [ 103.97389, 30.7284 ] } },
{ "type": "Feature", "properties": { "name": "云计算研究中心", "type": "科教文化服务;科教文化场所;科教文化场所", "address": "合作街道西芯大道3号国腾园2号楼", "lng": 103.969773, "lat": 30.733659, "province": "四川省", "city": "成都市", "district": "郫县" }, "geometry": { "type": "Point", "coordinates": [ 103.969773, 30.733659 ] } },
{ "type": "Feature", "properties": { "name": "星星河幼儿园", "type": "科教文化服务;学校;幼儿园", "address": "合作街道高新西区西芯大道3号国腾科技园内", "lng": 103.966289, "lat": 30.733082, "province": "四川省", "city": "成都市", "district": "郫县" }, "geometry": { "type": "Point", "coordinates": [ 103.966289, 30.733082 ] } },
{ "type": "Feature", "properties": { "name": "武安驾校报名点", "type": "科教文化服务;驾校;驾校", "address": "犀浦镇晨风村13号", "lng": 103.972131, "lat": 30.735468, "province": "四川省", "city": "成都市", "district": "郫县" }, "geometry": { "type": "Point", "coordinates": [ 103.972131, 30.735468 ] } },
{ "type": "Feature", "properties": { "name": "朗晴书画", "type": "科教文化服务;培训机构;培训机构", "address": "百草路141号附近", "lng": 103.97588, "lat": 30.736201, "province": "四川省", "city": "成都市", "district": "郫县" }, "geometry": { "type": "Point", "coordinates": [ 103.97588, 30.736201 ] } },
{ "type": "Feature", "properties": { "name": "思途教育(百草路)", "type": "科教文化服务;培训机构;培训机构", "address": "百草路143号附近", "lng": 103.975809, "lat": 30.736261, "province": "四川省", "city": "成都市", "district": "郫县" }, "geometry": { "type": "Point", "coordinates": [ 103.975809, 30.736261 ] } },
{ "type": "Feature", "properties": { "name": "星河教育", "type": "科教文化服务;培训机构;培训机构", "address": "合作街道成都高新区西芯大道东3号国腾科技园(创智联邦)4号楼", "lng": 103.968133, "lat": 30.734616, "province": "四川省", "city": "成都市", "district": "郫县" }, "geometry": { "type": "Point", "coordinates": [ 103.968133, 30.734616 ] } },
{ "type": "Feature", "properties": { "name": "龙新教育", "type": "科教文化服务;培训机构;培训机构", "address": "天目路43号保利香槟国际1栋1层", "lng": 103.975871, "lat": 30.731791, "province": "四川省", "city": "成都市", "district": "郫县" }, "geometry": { "type": "Point", "coordinates": [ 103.975871, 30.731791 ] } },
{ "type": "Feature", "properties": { "name": "尚达教育", "type": "科教文化服务;培训机构;培训机构", "address": "天辰路88号电子科技园西区1栋5楼501", "lng": 103.973895, "lat": 30.734744, "province": "四川省", "city": "成都市", "district": "郫县" }, "geometry": { "type": "Point", "coordinates": [ 103.973895, 30.734744 ] } },
{ "type": "Feature", "properties": { "name": "启点教育", "type": "科教文化服务;培训机构;培训机构", "address": "天目路77-8栋附114号附近", "lng": 103.975937, "lat": 30.735996, "province": "四川省", "city": "成都市", "district": "郫县" }, "geometry": { "type": "Point", "coordinates": [ 103.975937, 30.735996 ] } },
{ "type": "Feature", "properties": { "name": "赛博士机器人教育活动中心", "type": "科教文化服务;培训机构;培训机构", "address": "电子科技大学西区科技园1号楼212室", "lng": 103.974384, "lat": 30.734468, "province": "四川省", "city": "成都市", "district": "郫县" }, "geometry": { "type": "Point", "coordinates": [ 103.974384, 30.734468 ] } },
{ "type": "Feature", "properties": { "name": "DDP培训", "type": "科教文化服务;培训机构;培训机构", "address": "高新西区西芯大道3号创智联邦3号楼通用电气大厦", "lng": 103.96893, "lat": 30.733641, "province": "四川省", "city": "成都市", "district": "郫县" }, "geometry": { "type": "Point", "coordinates": [ 103.96893, 30.733641 ] } },
{ "type": "Feature", "properties": { "name": "北大幼儿园", "type": "科教文化服务;学校;幼儿园", "address": "百叶路新川路口", "lng": 103.971268, "lat": 30.727509, "province": "四川省", "city": "成都市", "district": "郫县" }, "geometry": { "type": "Point", "coordinates": [ 103.971268, 30.727509 ] } },
{ "type": "Feature", "properties": { "name": "成都山羊文化传播有限公司", "type": "科教文化服务;科教文化场所;科教文化场所", "address": "天目路保利香槟国际10栋2单元408号", "lng": 103.978021, "lat": 30.734084, "province": "四川省", "city": "成都市", "district": "郫县" }, "geometry": { "type": "Point", "coordinates": [ 103.978021, 30.734084 ] } },
{ "type": "Feature", "properties": { "name": "成都全德文化传播有限公司", "type": "科教文化服务;科教文化场所;科教文化场所", "address": "高新西区百草路保利新天地10栋", "lng": 103.977477, "lat": 30.733739, "province": "四川省", "city": "成都市", "district": "郫县" }, "geometry": { "type": "Point", "coordinates": [ 103.977477, 30.733739 ] } },
{ "type": "Feature", "properties": { "name": "成都思行致远文化传播有限公司", "type": "科教文化服务;科教文化场所;科教文化场所", "address": "高新西区天目路77号保利新天地", "lng": 103.977986, "lat": 30.733337, "province": "四川省", "city": "成都市", "district": "郫县" }, "geometry": { "type": "Point", "coordinates": [ 103.977986, 30.733337 ] } },
{ "type": "Feature", "properties": { "name": "成都博魅影视文化传媒有限公司", "type": "科教文化服务;传媒机构;传媒机构", "address": "天目路77号保利香槟国际", "lng": 103.976176, "lat": 30.733199, "province": "四川省", "city": "成都市", "district": "郫县" }, "geometry": { "type": "Point", "coordinates": [ 103.976176, 30.733199 ] } },
{ "type": "Feature", "properties": { "name": "成都外国语学校附属小学", "type": "科教文化服务;学校;小学", "address": "犀甫镇百草路", "lng": 103.985523, "lat": 30.733194, "province": "四川省", "city": "成都市", "district": "郫县" }, "geometry": { "type": "Point", "coordinates": [ 103.985523, 30.733194 ] } },
{ "type": "Feature", "properties": { "name": "如果艺术中心(保利校区)", "type": "科教文化服务;美术馆;美术馆", "address": "天目路77号保利新天地1栋1单元618号", "lng": 103.976167, "lat": 30.73219, "province": "四川省", "city": "成都市", "district": "郫县" }, "geometry": { "type": "Point", "coordinates": [ 103.976167, 30.73219 ] } },
{ "type": "Feature", "properties": { "name": "成都市华丽思化妆造型职业技能培训学校", "type": "科教文化服务;学校;职业技术学校", "address": "高新西区天目路77号保利香槟国际12栋2单元7楼", "lng": 103.977328, "lat": 30.732699, "province": "四川省", "city": "成都市", "district": "郫县" }, "geometry": { "type": "Point", "coordinates": [ 103.977328, 30.732699 ] } },
{ "type": "Feature", "properties": { "name": "思恺少儿俱乐部", "type": "科教文化服务;科教文化场所;科教文化场所", "address": "百草路23号附近", "lng": 103.977487, "lat": 30.734161, "province": "四川省", "city": "成都市", "district": "郫县" }, "geometry": { "type": "Point", "coordinates": [ 103.977487, 30.734161 ] } },
{ "type": "Feature", "properties": { "name": "成外附小", "type": "科教文化服务;科教文化场所;科教文化场所", "address": "百草路东段65号", "lng": 103.985519, "lat": 30.733184, "province": "四川省", "city": "成都市", "district": "郫县" }, "geometry": { "type": "Point", "coordinates": [ 103.985519, 30.733184 ] } },
{ "type": "Feature", "properties": { "name": "优佳成长教育", "type": "科教文化服务;培训机构;培训机构", "address": "高新西区百草路东段14号(成都外国语对面)", "lng": 103.97814, "lat": 30.733377, "province": "四川省", "city": "成都市", "district": "郫县" }, "geometry": { "type": "Point", "coordinates": [ 103.97814, 30.733377 ] } },
{ "type": "Feature", "properties": { "name": "I2国际私塾", "type": "科教文化服务;培训机构;培训机构", "address": "百草路东段32", "lng": 103.980353, "lat": 30.73098, "province": "四川省", "city": "成都市", "district": "金牛区" }, "geometry": { "type": "Point", "coordinates": [ 103.980353, 30.73098 ] } },
{ "type": "Feature", "properties": { "name": "优佳成长教育", "type": "科教文化服务;培训机构;培训机构", "address": "百草路东段16", "lng": 103.980068, "lat": 30.731737, "province": "四川省", "city": "成都市", "district": "金牛区" }, "geometry": { "type": "Point", "coordinates": [ 103.980068, 30.731737 ] } },
{ "type": "Feature", "properties": { "name": "I2国际私塾(百草路东)", "type": "科教文化服务;培训机构;培训机构", "address": "犀浦镇犀浦百草路东段12号", "lng": 103.980018, "lat": 30.731846, "province": "四川省", "city": "成都市", "district": "金牛区" }, "geometry": { "type": "Point", "coordinates": [ 103.980018, 30.731846 ] } },
{ "type": "Feature", "properties": { "name": "长征驾校(犀浦校区)", "type": "科教文化服务;驾校;驾校", "address": "高新西区天目路77号保利新天地10栋2单元205室", "lng": 103.97697, "lat": 30.73121, "province": "四川省", "city": "成都市", "district": "金牛区" }, "geometry": { "type": "Point", "coordinates": [ 103.97697, 30.73121 ] } },
{ "type": "Feature", "properties": { "name": "成实外教育(百草校区)", "type": "科教文化服务;培训机构;培训机构", "address": "高新西区百草路东段和心路1号(成实外旁)", "lng": 103.979023, "lat": 30.734503, "province": "四川省", "city": "成都市", "district": "郫县" }, "geometry": { "type": "Point", "coordinates": [ 103.979023, 30.734503 ] } },
{ "type": "Feature", "properties": { "name": "乐学教育(百草路)", "type": "科教文化服务;培训机构;培训机构", "address": "天目路167号附近", "lng": 103.977579, "lat": 30.734039, "province": "四川省", "city": "成都市", "district": "郫县" }, "geometry": { "type": "Point", "coordinates": [ 103.977579, 30.734039 ] } },
{ "type": "Feature", "properties": { "name": "米优思特艺术", "type": "科教文化服务;培训机构;培训机构", "address": "百草路27号", "lng": 103.977705, "lat": 30.73439, "province": "四川省", "city": "成都市", "district": "郫县" }, "geometry": { "type": "Point", "coordinates": [ 103.977705, 30.73439 ] } },
{ "type": "Feature", "properties": { "name": "无忧教育", "type": "科教文化服务;培训机构;培训机构", "address": "犀浦镇犀浦百草路保利新天地一栋1单元5楼", "lng": 103.976417, "lat": 30.731577, "province": "四川省", "city": "成都市", "district": "金牛区" }, "geometry": { "type": "Point", "coordinates": [ 103.976417, 30.731577 ] } },
{ "type": "Feature", "properties": { "name": "汇智百年教育", "type": "科教文化服务;培训机构;培训机构", "address": "高新西区百草路保利新天地10栋1单元329", "lng": 103.977096, "lat": 30.734555, "province": "四川省", "city": "成都市", "district": "郫县" }, "geometry": { "type": "Point", "coordinates": [ 103.977096, 30.734555 ] } },
{ "type": "Feature", "properties": { "name": "凹凸教育", "type": "科教文化服务;培训机构;培训机构", "address": "高新西区保利新天地11栋1单元3楼", "lng": 103.97727, "lat": 30.73409, "province": "四川省", "city": "成都市", "district": "郫县" }, "geometry": { "type": "Point", "coordinates": [ 103.97727, 30.73409 ] } },
{ "type": "Feature", "properties": { "name": "高新区佳贝爱早教中心", "type": "科教文化服务;培训机构;培训机构", "address": "高新西区天目路77号保利新天地12栋2单元2楼", "lng": 103.976931, "lat": 30.732877, "province": "四川省", "city": "成都市", "district": "郫县" }, "geometry": { "type": "Point", "coordinates": [ 103.976931, 30.732877 ] } },
{ "type": "Feature", "properties": { "name": "子规教育", "type": "科教文化服务;培训机构;培训机构", "address": "高新西区天目路77号保利香槟国际1栋1单元521", "lng": 103.976038, "lat": 30.733262, "province": "四川省", "city": "成都市", "district": "郫县" }, "geometry": { "type": "Point", "coordinates": [ 103.976038, 30.733262 ] } },
{ "type": "Feature", "properties": { "name": "金盾驾校训练基地(百草路东)", "type": "科教文化服务;驾校;驾校", "address": "犀浦镇高新西区百草路东外国语学校斜对面", "lng": 103.980036, "lat": 30.729875, "province": "四川省", "city": "成都市", "district": "金牛区" }, "geometry": { "type": "Point", "coordinates": [ 103.980036, 30.729875 ] } },
{ "type": "Feature", "properties": { "name": "蜀歌艺术中心", "type": "科教文化服务;培训机构;培训机构", "address": "高新西区天目路77号保利香槟国际10栋商业楼1单元202", "lng": 103.977232, "lat": 30.734883, "province": "四川省", "city": "成都市", "district": "郫县" }, "geometry": { "type": "Point", "coordinates": [ 103.977232, 30.734883 ] } },
{ "type": "Feature", "properties": { "name": "巴蜀山水", "type": "科教文化服务;培训机构;培训机构", "address": "天目路151号附近", "lng": 103.978144, "lat": 30.733377, "province": "四川省", "city": "成都市", "district": "郫县" }, "geometry": { "type": "Point", "coordinates": [ 103.978144, 30.733377 ] } },
{ "type": "Feature", "properties": { "name": "雅思外教美术舞蹈托管", "type": "科教文化服务;培训机构;培训机构", "address": "金粮路552号22栋附近", "lng": 103.98564, "lat": 30.730962, "province": "四川省", "city": "成都市", "district": "郫县" }, "geometry": { "type": "Point", "coordinates": [ 103.98564, 30.730962 ] } },
{ "type": "Feature", "properties": { "name": "金榜名师培训", "type": "科教文化服务;培训机构;培训机构", "address": "百草路49-51号附近", "lng": 103.977326, "lat": 30.734775, "province": "四川省", "city": "成都市", "district": "郫县" }, "geometry": { "type": "Point", "coordinates": [ 103.977326, 30.734775 ] } },
{ "type": "Feature", "properties": { "name": "成实外教育培训学校", "type": "科教文化服务;培训机构;培训机构", "address": "天目路77号保利香槟国际1栋2单元2楼", "lng": 103.976577, "lat": 30.731748, "province": "四川省", "city": "成都市", "district": "金牛区" }, "geometry": { "type": "Point", "coordinates": [ 103.976577, 30.731748 ] } },
{ "type": "Feature", "properties": { "name": "凹凸个性教育", "type": "科教文化服务;培训机构;培训机构", "address": "天目路151号附近", "lng": 103.978142, "lat": 30.733375, "province": "四川省", "city": "成都市", "district": "郫县" }, "geometry": { "type": "Point", "coordinates": [ 103.978142, 30.733375 ] } },
{ "type": "Feature", "properties": { "name": "文质周末学校", "type": "科教文化服务;培训机构;培训机构", "address": "天目路107号附近", "lng": 103.977499, "lat": 30.732691, "province": "四川省", "city": "成都市", "district": "郫县" }, "geometry": { "type": "Point", "coordinates": [ 103.977499, 30.732691 ] } },
{ "type": "Feature", "properties": { "name": "思贤教育", "type": "科教文化服务;培训机构;培训机构", "address": "天目路131号附近", "lng": 103.977201, "lat": 30.733625, "province": "四川省", "city": "成都市", "district": "郫县" }, "geometry": { "type": "Point", "coordinates": [ 103.977201, 30.733625 ] } },
{ "type": "Feature", "properties": { "name": "好学生教育", "type": "科教文化服务;培训机构;培训机构", "address": "天目路167号附近", "lng": 103.977627, "lat": 30.734007, "province": "四川省", "city": "成都市", "district": "郫县" }, "geometry": { "type": "Point", "coordinates": [ 103.977627, 30.734007 ] } },
{ "type": "Feature", "properties": { "name": "思恺教育", "type": "科教文化服务;培训机构;培训机构", "address": "百草路27号", "lng": 103.977705, "lat": 30.73439, "province": "四川省", "city": "成都市", "district": "郫县" }, "geometry": { "type": "Point", "coordinates": [ 103.977705, 30.73439 ] } },
{ "type": "Feature", "properties": { "name": "成头名师培训", "type": "科教文化服务;培训机构;培训机构", "address": "百草路", "lng": 103.977442, "lat": 30.7348, "province": "四川省", "city": "成都市", "district": "郫县" }, "geometry": { "type": "Point", "coordinates": [ 103.977442, 30.7348 ] } },
{ "type": "Feature", "properties": { "name": "雷霆教育", "type": "科教文化服务;培训机构;培训机构", "address": "合作街道高新西区西芯大道天目路45号(速8酒店六楼)", "lng": 103.977951, "lat": 30.734006, "province": "四川省", "city": "成都市", "district": "郫县" }, "geometry": { "type": "Point", "coordinates": [ 103.977951, 30.734006 ] } },
{ "type": "Feature", "properties": { "name": "米粒映画文化传播有限公司", "type": "科教文化服务;科教文化场所;科教文化场所", "address": "犀浦镇国宁东路1019号", "lng": 103.993641, "lat": 30.735306, "province": "四川省", "city": "成都市", "district": "郫县" }, "geometry": { "type": "Point", "coordinates": [ 103.993641, 30.735306 ] } },
{ "type": "Feature", "properties": { "name": "五粮村幼儿园(建设中)", "type": "科教文化服务;学校;幼儿园", "address": "国宁东路中铁·塔米亚附近", "lng": 103.99497, "lat": 30.729642, "province": "四川省", "city": "成都市", "district": "金牛区" }, "geometry": { "type": "Point", "coordinates": [ 103.99497, 30.729642 ] } },
{ "type": "Feature", "properties": { "name": "贝佳乐幼儿园(新里派克公馆小区西南)", "type": "科教文化服务;学校;幼儿园", "address": "犀浦镇金粮路566号新里派克公馆", "lng": 103.987204, "lat": 30.730684, "province": "四川省", "city": "成都市", "district": "郫县" }, "geometry": { "type": "Point", "coordinates": [ 103.987204, 30.730684 ] } },
{ "type": "Feature", "properties": { "name": "成都木子东方舞(肚皮舞)工作室", "type": "科教文化服务;培训机构;培训机构", "address": "金粮路新里派克公馆29栋2单元", "lng": 103.987755, "lat": 30.730904, "province": "四川省", "city": "成都市", "district": "郫县" }, "geometry": { "type": "Point", "coordinates": [ 103.987755, 30.730904 ] } },
{ "type": "Feature", "properties": { "name": "谦牧书院", "type": "科教文化服务;培训机构;培训机构", "address": "高新西区金粮路666号君临天下花园别墅楠林轩41-42号", "lng": 103.989167, "lat": 30.731333, "province": "四川省", "city": "成都市", "district": "郫县" }, "geometry": { "type": "Point", "coordinates": [ 103.989167, 30.731333 ] } },
{ "type": "Feature", "properties": { "name": "成都千盛文化传播有限公司", "type": "科教文化服务;传媒机构;传媒机构", "address": "G213(金牛大道)", "lng": 104.000843, "lat": 30.729321, "province": "四川省", "city": "成都市", "district": "金牛区" }, "geometry": { "type": "Point", "coordinates": [ 104.000843, 30.729321 ] } },
{ "type": "Feature", "properties": { "name": "西华街道综合文化活动室", "type": "科教文化服务;文化宫;文化宫", "address": "西华街道盛金路159号", "lng": 104.015702, "lat": 30.729836, "province": "四川省", "city": "成都市", "district": "金牛区" }, "geometry": { "type": "Point", "coordinates": [ 104.015702, 30.729836 ] } },
{ "type": "Feature", "properties": { "name": "兴盛小学校", "type": "科教文化服务;学校;小学", "address": "盛金路178号", "lng": 104.015985, "lat": 30.729618, "province": "四川省", "city": "成都市", "district": "金牛区" }, "geometry": { "type": "Point", "coordinates": [ 104.015985, 30.729618 ] } },
{ "type": "Feature", "properties": { "name": "成都市金牛区美乐思幼儿园", "type": "科教文化服务;学校;幼儿园", "address": "盛兴路南兴盛世家b区8栋", "lng": 104.010611, "lat": 30.729679, "province": "四川省", "city": "成都市", "district": "金牛区" }, "geometry": { "type": "Point", "coordinates": [ 104.010611, 30.729679 ] } },
{ "type": "Feature", "properties": { "name": "谭颖舞蹈艺术", "type": "科教文化服务;美术馆;美术馆", "address": "西华街道侯家桥二街124号2楼", "lng": 104.00996, "lat": 30.736272, "province": "四川省", "city": "成都市", "district": "金牛区" }, "geometry": { "type": "Point", "coordinates": [ 104.00996, 30.736272 ] } },
{ "type": "Feature", "properties": { "name": "童画镇文艺工作室", "type": "科教文化服务;科教文化场所;科教文化场所", "address": "侯家桥二街40号", "lng": 104.011645, "lat": 30.73537, "province": "四川省", "city": "成都市", "district": "金牛区" }, "geometry": { "type": "Point", "coordinates": [ 104.011645, 30.73537 ] } },
{ "type": "Feature", "properties": { "name": "领跑艺体", "type": "科教文化服务;培训机构;培训机构", "address": "盛金路149号附近", "lng": 104.015584, "lat": 30.729728, "province": "四川省", "city": "成都市", "district": "金牛区" }, "geometry": { "type": "Point", "coordinates": [ 104.015584, 30.729728 ] } },
{ "type": "Feature", "properties": { "name": "悦音艺校(盛金路)", "type": "科教文化服务;培训机构;培训机构", "address": "盛金路149号", "lng": 104.015584, "lat": 30.729728, "province": "四川省", "city": "成都市", "district": "金牛区" }, "geometry": { "type": "Point", "coordinates": [ 104.015584, 30.729728 ] } },
{ "type": "Feature", "properties": { "name": "美家教育", "type": "科教文化服务;培训机构;培训机构", "address": "侯家桥二街与侯家桥路交叉口南50米", "lng": 104.009924, "lat": 30.736301, "province": "四川省", "city": "成都市", "district": "金牛区" }, "geometry": { "type": "Point", "coordinates": [ 104.009924, 30.736301 ] } },
{ "type": "Feature", "properties": { "name": "轩艺艺校", "type": "科教文化服务;培训机构;培训机构", "address": "盛金路159号社区办公楼四楼", "lng": 104.015584, "lat": 30.729728, "province": "四川省", "city": "成都市", "district": "金牛区" }, "geometry": { "type": "Point", "coordinates": [ 104.015584, 30.729728 ] } },
{ "type": "Feature", "properties": { "name": "戴氏教育(兴盛总校)", "type": "科教文化服务;培训机构;培训机构", "address": "盛金路139号", "lng": 104.014723, "lat": 30.729703, "province": "四川省", "city": "成都市", "district": "金牛区" }, "geometry": { "type": "Point", "coordinates": [ 104.014723, 30.729703 ] } },
{ "type": "Feature", "properties": { "name": "翰林名师教育", "type": "科教文化服务;培训机构;培训机构", "address": "盛金路159号兴盛世家社区办公楼5楼", "lng": 104.015584, "lat": 30.729728, "province": "四川省", "city": "成都市", "district": "金牛区" }, "geometry": { "type": "Point", "coordinates": [ 104.015584, 30.729728 ] } },
{ "type": "Feature", "properties": { "name": "泛美英语", "type": "科教文化服务;培训机构;培训机构", "address": "盛金路159号", "lng": 104.015584, "lat": 30.729728, "province": "四川省", "city": "成都市", "district": "金牛区" }, "geometry": { "type": "Point", "coordinates": [ 104.015584, 30.729728 ] } },
{ "type": "Feature", "properties": { "name": "成都七中万达学校", "type": "科教文化服务;学校;中学", "address": "盛安路1号", "lng": 104.019277, "lat": 30.730771, "province": "四川省", "city": "成都市", "district": "金牛区" }, "geometry": { "type": "Point", "coordinates": [ 104.019277, 30.730771 ] } },
{ "type": "Feature", "properties": { "name": "金牛实验幼儿园", "type": "科教文化服务;学校;幼儿园", "address": "盛金路189号", "lng": 104.016263, "lat": 30.730251, "province": "四川省", "city": "成都市", "district": "金牛区" }, "geometry": { "type": "Point", "coordinates": [ 104.016263, 30.730251 ] } },
{ "type": "Feature", "properties": { "name": "达畅驾驶学校", "type": "科教文化服务;驾校;驾校", "address": "兴盛村3组", "lng": 104.020053, "lat": 30.734942, "province": "四川省", "city": "成都市", "district": "金牛区" }, "geometry": { "type": "Point", "coordinates": [ 104.020053, 30.734942 ] } },
{ "type": "Feature", "properties": { "name": "西泉幼儿园", "type": "科教文化服务;学校;幼儿园", "address": "西华大道盛金路189号", "lng": 104.01627, "lat": 30.730249, "province": "四川省", "city": "成都市", "district": "金牛区" }, "geometry": { "type": "Point", "coordinates": [ 104.01627, 30.730249 ] } },
{ "type": "Feature", "properties": { "name": "金牛区社区母亲课堂", "type": "科教文化服务;培训机构;培训机构", "address": "盛金路189号附近", "lng": 104.016152, "lat": 30.730299, "province": "四川省", "city": "成都市", "district": "金牛区" }, "geometry": { "type": "Point", "coordinates": [ 104.016152, 30.730299 ] } },
{ "type": "Feature", "properties": { "name": "成都铁中府河校区", "type": "科教文化服务;学校;中学", "address": "西华大道602号", "lng": 104.026513, "lat": 30.727435, "province": "四川省", "city": "成都市", "district": "金牛区" }, "geometry": { "type": "Point", "coordinates": [ 104.026513, 30.727435 ] } },
{ "type": "Feature", "properties": { "name": "成都市第四幼儿园府河园区", "type": "科教文化服务;学校;幼儿园", "address": "西华街道西华大道610号", "lng": 104.026487, "lat": 30.728739, "province": "四川省", "city": "成都市", "district": "金牛区" }, "geometry": { "type": "Point", "coordinates": [ 104.026487, 30.728739 ] } },
{ "type": "Feature", "properties": { "name": "郫县安靖金童天成幼儿园", "type": "科教文化服务;学校;幼儿园", "address": "安靖镇雍渡村八组", "lng": 104.030197, "lat": 30.73447, "province": "四川省", "city": "成都市", "district": "郫县" }, "geometry": { "type": "Point", "coordinates": [ 104.030197, 30.73447 ] } },
{ "type": "Feature", "properties": { "name": "郫县新星文艺学校", "type": "科教文化服务;学校;学校", "address": "安靖镇雍渡村8组320号", "lng": 104.033167, "lat": 30.734914, "province": "四川省", "city": "成都市", "district": "郫县" }, "geometry": { "type": "Point", "coordinates": [ 104.033167, 30.734914 ] } },
{ "type": "Feature", "properties": { "name": "亮眼睛幼儿园(厍庭东北)", "type": "科教文化服务;学校;幼儿园", "address": "安靖镇雍渡8组", "lng": 104.031673, "lat": 30.734187, "province": "四川省", "city": "成都市", "district": "郫县" }, "geometry": { "type": "Point", "coordinates": [ 104.031673, 30.734187 ] } },
{ "type": "Feature", "properties": { "name": "成都斯玛特艺术幼儿园", "type": "科教文化服务;学校;幼儿园", "address": "西华大道608号府河星城86幢物管旁", "lng": 104.031641, "lat": 30.729306, "province": "四川省", "city": "成都市", "district": "金牛区" }, "geometry": { "type": "Point", "coordinates": [ 104.031641, 30.729306 ] } },
{ "type": "Feature", "properties": { "name": "优博智胜教育中心", "type": "科教文化服务;科教文化场所;科教文化场所", "address": "府河苑三路608号附近", "lng": 104.02743, "lat": 30.728612, "province": "四川省", "city": "成都市", "district": "金牛区" }, "geometry": { "type": "Point", "coordinates": [ 104.02743, 30.728612 ] } },
{ "type": "Feature", "properties": { "name": "领跑艺体(府河校区)", "type": "科教文化服务;培训机构;培训机构", "address": "西华大道608号93栋附近", "lng": 104.031307, "lat": 30.727686, "province": "四川省", "city": "成都市", "district": "金牛区" }, "geometry": { "type": "Point", "coordinates": [ 104.031307, 30.727686 ] } },
{ "type": "Feature", "properties": { "name": "趣佳优教育", "type": "科教文化服务;培训机构;培训机构", "address": "府河星城馨苑93栋外商铺2楼", "lng": 104.031307, "lat": 30.727686, "province": "四川省", "city": "成都市", "district": "金牛区" }, "geometry": { "type": "Point", "coordinates": [ 104.031307, 30.727686 ] } },
{ "type": "Feature", "properties": { "name": "大师教育", "type": "科教文化服务;培训机构;培训机构", "address": "府河星城44栋1楼6室", "lng": 104.027535, "lat": 30.730338, "province": "四川省", "city": "成都市", "district": "金牛区" }, "geometry": { "type": "Point", "coordinates": [ 104.027535, 30.730338 ] } },
{ "type": "Feature", "properties": { "name": "MUMA舞蹈培训中心", "type": "科教文化服务;培训机构;培训机构", "address": "76号楼1单元5号", "lng": 104.030458, "lat": 30.728993, "province": "四川省", "city": "成都市", "district": "金牛区" }, "geometry": { "type": "Point", "coordinates": [ 104.030458, 30.728993 ] } },
{ "type": "Feature", "properties": { "name": "四川省景观造型艺术研究所", "type": "科教文化服务;科研机构;科研机构", "address": "西华大道中段青杠林村二组99号", "lng": 104.030364, "lat": 30.731943, "province": "四川省", "city": "成都市", "district": "金牛区" }, "geometry": { "type": "Point", "coordinates": [ 104.030364, 30.731943 ] } },
{ "type": "Feature", "properties": { "name": "斯马特艺术幼儿园", "type": "科教文化服务;学校;幼儿园", "address": "西华街道608号", "lng": 104.029648, "lat": 30.72855, "province": "四川省", "city": "成都市", "district": "金牛区" }, "geometry": { "type": "Point", "coordinates": [ 104.029648, 30.72855 ] } },
{ "type": "Feature", "properties": { "name": "假桥小学幼儿园", "type": "科教文化服务;学校;幼儿园", "address": "洞子口乡王贾村三组", "lng": 104.03965, "lat": 30.73556, "province": "四川省", "city": "成都市", "district": "金牛区" }, "geometry": { "type": "Point", "coordinates": [ 104.03965, 30.73556 ] } },
{ "type": "Feature", "properties": { "name": "顺邦文化传播", "type": "科教文化服务;科教文化场所;科教文化场所", "address": "新成彭路量力钢铁交易大厦c座16层", "lng": 104.04897, "lat": 30.727339, "province": "四川省", "city": "成都市", "district": "金牛区" }, "geometry": { "type": "Point", "coordinates": [ 104.04897, 30.727339 ] } },
{ "type": "Feature", "properties": { "name": "四川星蜀漫文化传播有限公司", "type": "科教文化服务;科教文化场所;科教文化场所", "address": "量力商贸大厦B座", "lng": 104.049601, "lat": 30.729081, "province": "四川省", "city": "成都市", "district": "金牛区" }, "geometry": { "type": "Point", "coordinates": [ 104.049601, 30.729081 ] } },
{ "type": "Feature", "properties": { "name": "金建小学校", "type": "科教文化服务;学校;小学", "address": "古柏路53号", "lng": 104.054039, "lat": 30.730528, "province": "四川省", "city": "成都市", "district": "金牛区" }, "geometry": { "type": "Point", "coordinates": [ 104.054039, 30.730528 ] } },
{ "type": "Feature", "properties": { "name": "华侨城沃顿幼儿园(筹)", "type": "科教文化服务;学校;幼儿园", "address": "新成彭路量力钢铁交易大厦b座21层", "lng": 104.04966, "lat": 30.727913, "province": "四川省", "city": "成都市", "district": "金牛区" }, "geometry": { "type": "Point", "coordinates": [ 104.04966, 30.727913 ] } },
{ "type": "Feature", "properties": { "name": "戴氏精品堂学校(古柏路)", "type": "科教文化服务;培训机构;培训机构", "address": "古柏路91号", "lng": 104.051838, "lat": 30.735827, "province": "四川省", "city": "成都市", "district": "金牛区" }, "geometry": { "type": "Point", "coordinates": [ 104.051838, 30.735827 ] } },
{ "type": "Feature", "properties": { "name": "成都建筑学校", "type": "科教文化服务;科教文化场所;科教文化场所", "address": "植物园南大门1号", "lng": 104.054933, "lat": 30.72939, "province": "四川省", "city": "成都市", "district": "金牛区" }, "geometry": { "type": "Point", "coordinates": [ 104.054933, 30.72939 ] } },
{ "type": "Feature", "properties": { "name": "戴氏教育(成彭立交分部)", "type": "科教文化服务;培训机构;培训机构", "address": "量力钢材城D区特2栋成都农商银行旁", "lng": 104.047355, "lat": 30.731774, "province": "四川省", "city": "成都市", "district": "金牛区" }, "geometry": { "type": "Point", "coordinates": [ 104.047355, 30.731774 ] } },
{ "type": "Feature", "properties": { "name": "沙河源街道川建社区图书阅览室", "type": "科教文化服务;科教文化场所;科教文化场所", "address": "川建路53号附近", "lng": 104.053945, "lat": 30.732135, "province": "四川省", "city": "成都市", "district": "金牛区" }, "geometry": { "type": "Point", "coordinates": [ 104.053945, 30.732135 ] } },
{ "type": "Feature", "properties": { "name": "兴义镇美术馆", "type": "科教文化服务;美术馆;美术馆", "address": "兴义镇", "lng": 104.048467, "lat": 30.728819, "province": "四川省", "city": "成都市", "district": "金牛区" }, "geometry": { "type": "Point", "coordinates": [ 104.048467, 30.728819 ] } },
{ "type": "Feature", "properties": { "name": "沙河源街道综合文化活动中心", "type": "科教文化服务;天文馆;天文馆", "address": "朗润路239号附32号", "lng": 104.05865, "lat": 30.731184, "province": "四川省", "city": "成都市", "district": "金牛区" }, "geometry": { "type": "Point", "coordinates": [ 104.05865, 30.731184 ] } },
{ "type": "Feature", "properties": { "name": "泉水路小学校", "type": "科教文化服务;学校;小学", "address": "沙河源街道嘉泽路39号", "lng": 104.063489, "lat": 30.728206, "province": "四川省", "city": "成都市", "district": "金牛区" }, "geometry": { "type": "Point", "coordinates": [ 104.063489, 30.728206 ] } },
{ "type": "Feature", "properties": { "name": "交大智能盛梅幼儿园", "type": "科教文化服务;学校;幼儿园", "address": null, "lng": 104.056224, "lat": 30.732042, "province": "四川省", "city": "成都市", "district": "金牛区" }, "geometry": { "type": "Point", "coordinates": [ 104.056224, 30.732042 ] } },
{ "type": "Feature", "properties": { "name": "沙河源街道社区市民学校", "type": "科教文化服务;学校;学校", "address": "朗润路239号附32号", "lng": 104.05865, "lat": 30.731184, "province": "四川省", "city": "成都市", "district": "金牛区" }, "geometry": { "type": "Point", "coordinates": [ 104.05865, 30.731184 ] } },
{ "type": "Feature", "properties": { "name": "乖乖双语幼儿园", "type": "科教文化服务;学校;幼儿园", "address": "川建路附近", "lng": 104.06262, "lat": 30.733715, "province": "四川省", "city": "成都市", "district": "金牛区" }, "geometry": { "type": "Point", "coordinates": [ 104.06262, 30.733715 ] } },
{ "type": "Feature", "properties": { "name": "新思维学校(泉水分校)", "type": "科教文化服务;培训机构;培训机构", "address": "郎润路", "lng": 104.062122, "lat": 30.730844, "province": "四川省", "city": "成都市", "district": "金牛区" }, "geometry": { "type": "Point", "coordinates": [ 104.062122, 30.730844 ] } },
{ "type": "Feature", "properties": { "name": "长城驾校", "type": "科教文化服务;驾校;驾校", "address": "嘉泽路2号附9号", "lng": 104.06139, "lat": 30.728309, "province": "四川省", "city": "成都市", "district": "金牛区" }, "geometry": { "type": "Point", "coordinates": [ 104.06139, 30.728309 ] } },
{ "type": "Feature", "properties": { "name": "单石桥小学", "type": "科教文化服务;学校;小学", "address": "凤林四路133号附近", "lng": 104.07114, "lat": 30.733298, "province": "四川省", "city": "成都市", "district": "金牛区" }, "geometry": { "type": "Point", "coordinates": [ 104.07114, 30.733298 ] } },
{ "type": "Feature", "properties": { "name": "安洲驾校", "type": "科教文化服务;驾校;驾校", "address": "川建路南50米", "lng": 104.067128, "lat": 30.732758, "province": "四川省", "city": "成都市", "district": "金牛区" }, "geometry": { "type": "Point", "coordinates": [ 104.067128, 30.732758 ] } },
{ "type": "Feature", "properties": { "name": "四点半学校凤凰小学分校", "type": "科教文化服务;学校;小学", "address": "凤林四路133号", "lng": 104.071229, "lat": 30.733287, "province": "四川省", "city": "成都市", "district": "金牛区" }, "geometry": { "type": "Point", "coordinates": [ 104.071229, 30.733287 ] } },
{ "type": "Feature", "properties": { "name": "四川省陆上运动学校", "type": "科教文化服务;学校;职业技术学校", "address": "凤凰山凤鸣路9号", "lng": 104.091674, "lat": 30.731364, "province": "四川省", "city": "成都市", "district": "金牛区" }, "geometry": { "type": "Point", "coordinates": [ 104.091674, 30.731364 ] } },
{ "type": "Feature", "properties": { "name": "开心智能幼儿园(蜀陵路)", "type": "科教文化服务;学校;幼儿园", "address": "成华区青龙街道白莲池村二组", "lng": 104.112405, "lat": 30.728732, "province": "四川省", "city": "成都市", "district": "成华区" }, "geometry": { "type": "Point", "coordinates": [ 104.112405, 30.728732 ] } },
{ "type": "Feature", "properties": { "name": "交建驾校", "type": "科教文化服务;驾校;驾校", "address": "桃蹊路街道川陕路将军碑街59号", "lng": 104.10822, "lat": 30.727351, "province": "四川省", "city": "成都市", "district": "成华区" }, "geometry": { "type": "Point", "coordinates": [ 104.10822, 30.727351 ] } },
{ "type": "Feature", "properties": { "name": "乐通教育", "type": "科教文化服务;培训机构;培训机构", "address": "天回镇街道蓉都大道将军碑路436号天子家私旗舰店", "lng": 104.108299, "lat": 30.732822, "province": "四川省", "city": "成都市", "district": "金牛区" }, "geometry": { "type": "Point", "coordinates": [ 104.108299, 30.732822 ] } },
{ "type": "Feature", "properties": { "name": "欧普空间美学", "type": "科教文化服务;培训机构;培训机构", "address": "大湾建材市场A区12-13号", "lng": 104.1133, "lat": 30.735879, "province": "四川省", "city": "成都市", "district": "金牛区" }, "geometry": { "type": "Point", "coordinates": [ 104.1133, 30.735879 ] } },
{ "type": "Feature", "properties": { "name": "成都市红花实验学校", "type": "科教文化服务;学校;学校", "address": "蜀陵路772号", "lng": 104.122126, "lat": 30.735281, "province": "四川省", "city": "成都市", "district": "成华区" }, "geometry": { "type": "Point", "coordinates": [ 104.122126, 30.735281 ] } },
{ "type": "Feature", "properties": { "name": "成都市成华区青龙和谐学校", "type": "科教文化服务;学校;学校", "address": "青龙街道青龙乡石岭村9组181号", "lng": 104.118036, "lat": 30.730314, "province": "四川省", "city": "成都市", "district": "成华区" }, "geometry": { "type": "Point", "coordinates": [ 104.118036, 30.730314 ] } },
{ "type": "Feature", "properties": { "name": "成都市成华区三证学生接收学校", "type": "科教文化服务;科教文化场所;科教文化场所", "address": "青龙街道青龙乡石岭村9组181号成都市成华区青龙和谐学校附近", "lng": 104.11789, "lat": 30.730407, "province": "四川省", "city": "成都市", "district": "成华区" }, "geometry": { "type": "Point", "coordinates": [ 104.11789, 30.730407 ] } },
{ "type": "Feature", "properties": { "name": "熊猫路小学(熊猫大道)", "type": "科教文化服务;学校;小学", "address": "熊猫大道西50米", "lng": 104.138093, "lat": 30.72743, "province": "四川省", "city": "成都市", "district": "成华区" }, "geometry": { "type": "Point", "coordinates": [ 104.138093, 30.72743 ] } },
{ "type": "Feature", "properties": { "name": "成都大熊猫繁育研究基地熊猫科学探秘馆", "type": "科教文化服务;科研机构;科研机构|科教文化服务;博物馆;博物馆|科教文化服务;科技馆;科技馆", "address": "外北三环熊猫大道1375号大熊猫繁育研究基地内", "lng": 104.144027, "lat": 30.734378, "province": "四川省", "city": "成都市", "district": "成华区" }, "geometry": { "type": "Point", "coordinates": [ 104.144027, 30.734378 ] } },
{ "type": "Feature", "properties": { "name": "日本大学成都大熊猫研究所", "type": "科教文化服务;科研机构;科研机构", "address": "外北熊猫大道1375号成都大熊猫繁育研究基地", "lng": 104.14411, "lat": 30.734683, "province": "四川省", "city": "成都市", "district": "成华区" }, "geometry": { "type": "Point", "coordinates": [ 104.14411, 30.734683 ] } },
{ "type": "Feature", "properties": { "name": "大熊猫保护生物学国际研究中心", "type": "科教文化服务;科研机构;科研机构", "address": "外北熊猫大道1375号成都大熊猫繁育研究基地", "lng": 104.14411, "lat": 30.734683, "province": "四川省", "city": "成都市", "district": "成华区" }, "geometry": { "type": "Point", "coordinates": [ 104.14411, 30.734683 ] } },
{ "type": "Feature", "properties": { "name": "成都大熊猫繁育研究基地实验室", "type": "科教文化服务;科研机构;科研机构", "address": "外北熊猫大道1375号成都大熊猫繁育研究基地", "lng": 104.14411, "lat": 30.734683, "province": "四川省", "city": "成都市", "district": "成华区" }, "geometry": { "type": "Point", "coordinates": [ 104.14411, 30.734683 ] } },
{ "type": "Feature", "properties": { "name": "成都大熊猫繁育研究基地办公楼", "type": "科教文化服务;科研机构;科研机构", "address": "外北熊猫大道1375号成都大熊猫繁育研究基地", "lng": 104.145123, "lat": 30.733888, "province": "四川省", "city": "成都市", "district": "成华区" }, "geometry": { "type": "Point", "coordinates": [ 104.145123, 30.733888 ] } },
{ "type": "Feature", "properties": { "name": "成都大熊猫繁育研究基地博士后科研工作站", "type": "科教文化服务;科研机构;科研机构", "address": "外北熊猫大道1375号成都大熊猫繁育研究基地", "lng": 104.14411, "lat": 30.734683, "province": "四川省", "city": "成都市", "district": "成华区" }, "geometry": { "type": "Point", "coordinates": [ 104.14411, 30.734683 ] } },
{ "type": "Feature", "properties": { "name": "四川省濒危野生动物保护生物学省部共建实验室科学技术部", "type": "科教文化服务;科研机构;科研机构", "address": "外北熊猫大道1375号成都大熊猫繁育研究基地", "lng": 104.14411, "lat": 30.734683, "province": "四川省", "city": "成都市", "district": "成华区" }, "geometry": { "type": "Point", "coordinates": [ 104.14411, 30.734683 ] } },
{ "type": "Feature", "properties": { "name": "成都大熊猫繁育研究基地-蝴蝶馆", "type": "科教文化服务;展览馆;展览馆", "address": "外北三环熊猫大道1375号成都大熊猫繁育研究基地内", "lng": 104.145627, "lat": 30.732909, "province": "四川省", "city": "成都市", "district": "成华区" }, "geometry": { "type": "Point", "coordinates": [ 104.145627, 30.732909 ] } },
{ "type": "Feature", "properties": { "name": "株式会社OSG Corporation成都大熊猫繁育研究基地功能水共同研究中心", "type": "科教文化服务;科研机构;科研机构", "address": "外北熊猫大道1375号成都大熊猫繁育研究基地", "lng": 104.14411, "lat": 30.734683, "province": "四川省", "city": "成都市", "district": "成华区" }, "geometry": { "type": "Point", "coordinates": [ 104.14411, 30.734683 ] } },
{ "type": "Feature", "properties": { "name": "大熊猫博物馆", "type": "科教文化服务;博物馆;博物馆|科教文化服务;展览馆;展览馆", "address": "外北熊猫大道1375号成都大熊猫繁育研究基地", "lng": 104.146456, "lat": 30.73358, "province": "四川省", "city": "成都市", "district": "成华区" }, "geometry": { "type": "Point", "coordinates": [ 104.146456, 30.73358 ] } },
{ "type": "Feature", "properties": { "name": "木兰镇梁胜小学", "type": "科教文化服务;学校;小学", "address": "木兰镇梁胜村7组", "lng": 104.184462, "lat": 30.735704, "province": "四川省", "city": "成都市", "district": "新都区" }, "geometry": { "type": "Point", "coordinates": [ 104.184462, 30.735704 ] } },
{ "type": "Feature", "properties": { "name": "成都外国语学校高三校区", "type": "科教文化服务;学校;中学", "address": "高新西区汇川街558号", "lng": 103.974687, "lat": 30.726379, "province": "四川省", "city": "成都市", "district": "金牛区" }, "geometry": { "type": "Point", "coordinates": [ 103.974687, 30.726379 ] } },
{ "type": "Feature", "properties": { "name": "成都外国语学校附属幼稚园", "type": "科教文化服务;学校;幼儿园", "address": "金泉街道西线蜀西路399号中海国际社区", "lng": 103.97496, "lat": 30.725963, "province": "四川省", "city": "成都市", "district": "金牛区" }, "geometry": { "type": "Point", "coordinates": [ 103.97496, 30.725963 ] } },
{ "type": "Feature", "properties": { "name": "新加坡锦兰国际幼稚园", "type": "科教文化服务;学校;幼儿园", "address": "蜀西路399号中海国际社区碧林街208号", "lng": 103.975279, "lat": 30.721029, "province": "四川省", "city": "成都市", "district": "郫县" }, "geometry": { "type": "Point", "coordinates": [ 103.975279, 30.721029 ] } },
{ "type": "Feature", "properties": { "name": "成都外国语学校附属小学中海校区", "type": "科教文化服务;学校;小学", "address": "中海国际社区汇川街518号", "lng": 103.975557, "lat": 30.725597, "province": "四川省", "city": "成都市", "district": "金牛区" }, "geometry": { "type": "Point", "coordinates": [ 103.975557, 30.725597 ] } },
{ "type": "Feature", "properties": { "name": "成外附小幼稚园", "type": "科教文化服务;学校;幼儿园", "address": "汇川街538号", "lng": 103.974959, "lat": 30.7263, "province": "四川省", "city": "成都市", "district": "金牛区" }, "geometry": { "type": "Point", "coordinates": [ 103.974959, 30.7263 ] } },
{ "type": "Feature", "properties": { "name": "布梵画室专业美术培训基地", "type": "科教文化服务;培训机构;培训机构", "address": "中海国际社区碧林街333号峰墅二期10-6", "lng": 103.97414, "lat": 30.72555, "province": "四川省", "city": "成都市", "district": "郫县" }, "geometry": { "type": "Point", "coordinates": [ 103.97414, 30.72555 ] } },
{ "type": "Feature", "properties": { "name": "乘风驾校", "type": "科教文化服务;驾校;驾校", "address": "高新西区中海国际绿茵街100号", "lng": 103.975555, "lat": 30.723925, "province": "四川省", "city": "成都市", "district": "郫县" }, "geometry": { "type": "Point", "coordinates": [ 103.975555, 30.723925 ] } },
{ "type": "Feature", "properties": { "name": "锦兰中海幼稚园", "type": "科教文化服务;学校;幼儿园", "address": "中海国际社区碧林街188号", "lng": 103.975909, "lat": 30.719954, "province": "四川省", "city": "成都市", "district": "郫县" }, "geometry": { "type": "Point", "coordinates": [ 103.975909, 30.719954 ] } },
{ "type": "Feature", "properties": { "name": "体育文化传播有限公司", "type": "科教文化服务;科教文化场所;科教文化场所", "address": "阳光街209号附202号", "lng": 103.978064, "lat": 30.717489, "province": "四川省", "city": "成都市", "district": "郫县" }, "geometry": { "type": "Point", "coordinates": [ 103.978064, 30.717489 ] } },
{ "type": "Feature", "properties": { "name": "四川盛世卡漫文化传播有限公司", "type": "科教文化服务;科教文化场所;科教文化场所", "address": "高新西区蜀西路汇川街299号", "lng": 103.977614, "lat": 30.721986, "province": "四川省", "city": "成都市", "district": "郫县" }, "geometry": { "type": "Point", "coordinates": [ 103.977614, 30.721986 ] } },
{ "type": "Feature", "properties": { "name": "成都赶集好房文化传播有限公司", "type": "科教文化服务;科教文化场所;科教文化场所", "address": "高新西区蜀西路399号中海海科大厦B座1010", "lng": 103.981041, "lat": 30.721243, "province": "四川省", "city": "成都市", "district": "金牛区" }, "geometry": { "type": "Point", "coordinates": [ 103.981041, 30.721243 ] } },
{ "type": "Feature", "properties": { "name": "鹰凡高尔夫体育文化传播有限公司", "type": "科教文化服务;科教文化场所;科教文化场所", "address": "蜀西路399号中海国际社区体育公园B区", "lng": 103.97941, "lat": 30.72261, "province": "四川省", "city": "成都市", "district": "金牛区" }, "geometry": { "type": "Point", "coordinates": [ 103.97941, 30.72261 ] } },
{ "type": "Feature", "properties": { "name": "成都快乐你我他文化传播有限公司", "type": "科教文化服务;科教文化场所;科教文化场所", "address": "蜀西路58号精城国际1幢1单元1303", "lng": 103.984801, "lat": 30.719299, "province": "四川省", "city": "成都市", "district": "金牛区" }, "geometry": { "type": "Point", "coordinates": [ 103.984801, 30.719299 ] } },
{ "type": "Feature", "properties": { "name": "天籁之音艺术培训(中海学校)", "type": "科教文化服务;培训机构;培训机构", "address": "汇川街166号2栋附202-204", "lng": 103.98095, "lat": 30.72019, "province": "四川省", "city": "成都市", "district": "金牛区" }, "geometry": { "type": "Point", "coordinates": [ 103.98095, 30.72019 ] } },
{ "type": "Feature", "properties": { "name": "成都国际学校", "type": "科教文化服务;学校;中学", "address": "绿茵街36号", "lng": 103.977004, "lat": 30.724585, "province": "四川省", "city": "成都市", "district": "金牛区" }, "geometry": { "type": "Point", "coordinates": [ 103.977004, 30.724585 ] } },
{ "type": "Feature", "properties": { "name": "金苹果中海国际社区幼稚园", "type": "科教文化服务;学校;幼儿园", "address": "蓝岸街177号", "lng": 103.978173, "lat": 30.719518, "province": "四川省", "city": "成都市", "district": "金牛区" }, "geometry": { "type": "Point", "coordinates": [ 103.978173, 30.719518 ] } },
{ "type": "Feature", "properties": { "name": "成都高新区西芯小学", "type": "科教文化服务;学校;小学", "address": "高新区汇川街138号", "lng": 103.981822, "lat": 30.719339, "province": "四川省", "city": "成都市", "district": "金牛区" }, "geometry": { "type": "Point", "coordinates": [ 103.981822, 30.719339 ] } },
{ "type": "Feature", "properties": { "name": "星瑞美丽华酒店-会议厅", "type": "科教文化服务;会展中心;会展中心", "address": "汇川街388号星瑞美丽华酒店", "lng": 103.97884, "lat": 30.72381, "province": "四川省", "city": "成都市", "district": "金牛区" }, "geometry": { "type": "Point", "coordinates": [ 103.97884, 30.72381 ] } },
{ "type": "Feature", "properties": { "name": "蜀新驾校", "type": "科教文化服务;驾校;驾校", "address": "土龙路216号", "lng": 103.980001, "lat": 30.7202, "province": "四川省", "city": "成都市", "district": "金牛区" }, "geometry": { "type": "Point", "coordinates": [ 103.980001, 30.7202 ] } },
{ "type": "Feature", "properties": { "name": "子规西庭酒店-会议厅", "type": "科教文化服务;会展中心;会展中心", "address": "汇川街166号子规西庭酒店", "lng": 103.98174, "lat": 30.71991, "province": "四川省", "city": "成都市", "district": "金牛区" }, "geometry": { "type": "Point", "coordinates": [ 103.98174, 30.71991 ] } },
{ "type": "Feature", "properties": { "name": "丹艾斯舞蹈工作室", "type": "科教文化服务;培训机构;培训机构", "address": "蜀西路399号中海国际社区海科大厦A座303-312室(近沃尔玛,成都银行楼上3楼)", "lng": 103.98103, "lat": 30.72129, "province": "四川省", "city": "成都市", "district": "金牛区" }, "geometry": { "type": "Point", "coordinates": [ 103.98103, 30.72129 ] } },
{ "type": "Feature", "properties": { "name": "丹秋·名师堂学校(阳光街)", "type": "科教文化服务;培训机构;培训机构|科教文化服务;学校;学校", "address": "高新西区羊西线蜀西路399号中海海科大厦A座2层", "lng": 103.981059, "lat": 30.721288, "province": "四川省", "city": "成都市", "district": "金牛区" }, "geometry": { "type": "Point", "coordinates": [ 103.981059, 30.721288 ] } },
{ "type": "Feature", "properties": { "name": "成都望子成龙学校", "type": "科教文化服务;学校;学校", "address": "汇川街166号中海国际社区海科大厦b座1幢12层", "lng": 103.981041, "lat": 30.721243, "province": "四川省", "city": "成都市", "district": "金牛区" }, "geometry": { "type": "Point", "coordinates": [ 103.981041, 30.721243 ] } },
{ "type": "Feature", "properties": { "name": "贝尔机器人儿童学院(中海校区)", "type": "科教文化服务;学校;高等院校", "address": "蜀西路339号中海国际海科大厦B座6-16号", "lng": 103.98182, "lat": 30.71967, "province": "四川省", "city": "成都市", "district": "金牛区" }, "geometry": { "type": "Point", "coordinates": [ 103.98182, 30.71967 ] } },
{ "type": "Feature", "properties": { "name": "ICC国际儿童会(汇川街)", "type": "购物服务;专卖店;书店|科教文化服务;培训机构;培训机构", "address": "合作街道中海国际汇川街200号", "lng": 103.980641, "lat": 30.720396, "province": "四川省", "city": "成都市", "district": "金牛区" }, "geometry": { "type": "Point", "coordinates": [ 103.980641, 30.720396 ] } },
{ "type": "Feature", "properties": { "name": "成都爱思国际学校中海校区", "type": "科教文化服务;学校;中学", "address": "蜀西路399号中海国际社区绿茵街36号", "lng": 103.977004, "lat": 30.724584, "province": "四川省", "city": "成都市", "district": "金牛区" }, "geometry": { "type": "Point", "coordinates": [ 103.977004, 30.724584 ] } },
{ "type": "Feature", "properties": { "name": "东方爱婴(中海国际店)", "type": "科教文化服务;培训机构;培训机构", "address": "汇川街166号中海海科大厦B座5层502室", "lng": 103.981767, "lat": 30.720771, "province": "四川省", "city": "成都市", "district": "金牛区" }, "geometry": { "type": "Point", "coordinates": [ 103.981767, 30.720771 ] } },
{ "type": "Feature", "properties": { "name": "银河时光机器人", "type": "科教文化服务;科教文化场所;科教文化场所", "address": "合作街道高新西区蜀西路399号(中海国际海科大厦B座1206)", "lng": 103.98103, "lat": 30.721288, "province": "四川省", "city": "成都市", "district": "金牛区" }, "geometry": { "type": "Point", "coordinates": [ 103.98103, 30.721288 ] } },
{ "type": "Feature", "properties": { "name": "川音大地音乐学校(中海分校)", "type": "科教文化服务;培训机构;培训机构", "address": "土龙路192号", "lng": 103.980017, "lat": 30.717125, "province": "四川省", "city": "成都市", "district": "金牛区" }, "geometry": { "type": "Point", "coordinates": [ 103.980017, 30.717125 ] } },
{ "type": "Feature", "properties": { "name": "小天使成长中心", "type": "科教文化服务;科教文化场所;科教文化场所", "address": "汇川街55号", "lng": 103.98076, "lat": 30.717549, "province": "四川省", "city": "成都市", "district": "郫县" }, "geometry": { "type": "Point", "coordinates": [ 103.98076, 30.717549 ] } },
{ "type": "Feature", "properties": { "name": "海伦艺术教育(土龙路)", "type": "科教文化服务;培训机构;培训机构", "address": "土龙路与蓝岸街交叉口西南50米", "lng": 103.979968, "lat": 30.71711, "province": "四川省", "city": "成都市", "district": "郫县" }, "geometry": { "type": "Point", "coordinates": [ 103.979968, 30.71711 ] } },
{ "type": "Feature", "properties": { "name": "名师培优教育", "type": "科教文化服务;培训机构;培训机构", "address": "土龙路116号", "lng": 103.981843, "lat": 30.717632, "province": "四川省", "city": "成都市", "district": "金牛区" }, "geometry": { "type": "Point", "coordinates": [ 103.981843, 30.717632 ] } },
{ "type": "Feature", "properties": { "name": "成都高新区西芯小学-育心楼", "type": "科教文化服务;科教文化场所;科教文化场所", "address": "汇川街", "lng": 103.982031, "lat": 30.719374, "province": "四川省", "city": "成都市", "district": "金牛区" }, "geometry": { "type": "Point", "coordinates": [ 103.982031, 30.719374 ] } },
{ "type": "Feature", "properties": { "name": "成都高新区西芯小学-创新楼", "type": "科教文化服务;科教文化场所;科教文化场所", "address": "汇川街138#附近", "lng": 103.981843, "lat": 30.71935, "province": "四川省", "city": "成都市", "district": "金牛区" }, "geometry": { "type": "Point", "coordinates": [ 103.981843, 30.71935 ] } },
{ "type": "Feature", "properties": { "name": "沃尔·缇格语言学校", "type": "科教文化服务;培训机构;培训机构", "address": "汇川街166号2栋附305号", "lng": 103.981445, "lat": 30.719774, "province": "四川省", "city": "成都市", "district": "金牛区" }, "geometry": { "type": "Point", "coordinates": [ 103.981445, 30.719774 ] } },
{ "type": "Feature", "properties": { "name": "成都市七彩乐教育中心", "type": "科教文化服务;培训机构;培训机构", "address": "碧林街188号央墅蓝卡斯特3-10", "lng": 103.976522, "lat": 30.720323, "province": "四川省", "city": "成都市", "district": "金牛区" }, "geometry": { "type": "Point", "coordinates": [ 103.976522, 30.720323 ] } },
{ "type": "Feature", "properties": { "name": "国际私塾", "type": "科教文化服务;培训机构;培训机构", "address": "合作街道中海国际社区汇川街166号海科大厦B座1栋单元2楼附210", "lng": 103.98224, "lat": 30.720294, "province": "四川省", "city": "成都市", "district": "金牛区" }, "geometry": { "type": "Point", "coordinates": [ 103.98224, 30.720294 ] } },
{ "type": "Feature", "properties": { "name": "希萌沙画艺术工作室", "type": "科教文化服务;培训机构;培训机构", "address": "蓝岸街98号", "lng": 103.980287, "lat": 30.717919, "province": "四川省", "city": "成都市", "district": "金牛区" }, "geometry": { "type": "Point", "coordinates": [ 103.980287, 30.717919 ] } },
{ "type": "Feature", "properties": { "name": "锦兰国际教保中心", "type": "科教文化服务;培训机构;培训机构", "address": "中海国际汇川街166号2栋313", "lng": 103.981727, "lat": 30.71999, "province": "四川省", "city": "成都市", "district": "金牛区" }, "geometry": { "type": "Point", "coordinates": [ 103.981727, 30.71999 ] } },
{ "type": "Feature", "properties": { "name": "银河时光机器人中海国际校区", "type": "科教文化服务;科教文化场所;科教文化场所", "address": "汇川街166号中海海科大厦B座1206室", "lng": 103.98215, "lat": 30.720379, "province": "四川省", "city": "成都市", "district": "金牛区" }, "geometry": { "type": "Point", "coordinates": [ 103.98215, 30.720379 ] } },
{ "type": "Feature", "properties": { "name": "公交驾校", "type": "科教文化服务;驾校;驾校", "address": "土龙路与蓝岸街交叉口东北100米", "lng": 103.980613, "lat": 30.717668, "province": "四川省", "city": "成都市", "district": "郫县" }, "geometry": { "type": "Point", "coordinates": [ 103.980613, 30.717668 ] } },
{ "type": "Feature", "properties": { "name": "康福德高青羊驾校报名点(碧林街)", "type": "科教文化服务;驾校;驾校|生活服务;生活服务场所;生活服务场所", "address": "中海国际碧林街127号", "lng": 103.976876, "lat": 30.718586, "province": "四川省", "city": "成都市", "district": "郫县" }, "geometry": { "type": "Point", "coordinates": [ 103.976876, 30.718586 ] } },
{ "type": "Feature", "properties": { "name": "夏加儿美术教育(阳光街)", "type": "科教文化服务;培训机构;培训机构", "address": "海科大厦B座412号", "lng": 103.981755, "lat": 30.720208, "province": "四川省", "city": "成都市", "district": "金牛区" }, "geometry": { "type": "Point", "coordinates": [ 103.981755, 30.720208 ] } },
{ "type": "Feature", "properties": { "name": "新思维学校(中海国际校区)", "type": "科教文化服务;培训机构;培训机构", "address": "高新西区蜀西路中海海科大厦B座6层", "lng": 103.982245, "lat": 30.720284, "province": "四川省", "city": "成都市", "district": "金牛区" }, "geometry": { "type": "Point", "coordinates": [ 103.982245, 30.720284 ] } },
{ "type": "Feature", "properties": { "name": "成都戴氏高考中考培训学校", "type": "科教文化服务;培训机构;培训机构", "address": "高新西区羊西线蜀西路399号中海国际社区海科大厦A座4楼", "lng": 103.981041, "lat": 30.721243, "province": "四川省", "city": "成都市", "district": "金牛区" }, "geometry": { "type": "Point", "coordinates": [ 103.981041, 30.721243 ] } },
{ "type": "Feature", "properties": { "name": "第壹舞蹈学校(中海国际校区)", "type": "科教文化服务;培训机构;培训机构", "address": "高新西区中海国际社区海科大厦A座312", "lng": 103.981003, "lat": 30.721378, "province": "四川省", "city": "成都市", "district": "金牛区" }, "geometry": { "type": "Point", "coordinates": [ 103.981003, 30.721378 ] } },
{ "type": "Feature", "properties": { "name": "红黄蓝亲子园(中海国际店)", "type": "科教文化服务;培训机构;培训机构", "address": "高新西区蜀西路中海国际社区海科大夏B座2", "lng": 103.981812, "lat": 30.720231, "province": "四川省", "city": "成都市", "district": "金牛区" }, "geometry": { "type": "Point", "coordinates": [ 103.981812, 30.720231 ] } },
{ "type": "Feature", "properties": { "name": "国际私塾", "type": "科教文化服务;培训机构;培训机构", "address": "郫筒街道中海国际蜀西路399号海科B座二楼", "lng": 103.98103, "lat": 30.721288, "province": "四川省", "city": "成都市", "district": "金牛区" }, "geometry": { "type": "Point", "coordinates": [ 103.98103, 30.721288 ] } },
{ "type": "Feature", "properties": { "name": "银波教育", "type": "科教文化服务;培训机构;培训机构", "address": "高新西区中海国际社区海科大厦b座605", "lng": 103.981556, "lat": 30.720549, "province": "四川省", "city": "成都市", "district": "金牛区" }, "geometry": { "type": "Point", "coordinates": [ 103.981556, 30.720549 ] } },
{ "type": "Feature", "properties": { "name": "中国中铁二局工程机械学校", "type": "科教文化服务;学校;学校", "address": "金周路530号附8号", "lng": 103.989125, "lat": 30.722926, "province": "四川省", "city": "成都市", "district": "金牛区" }, "geometry": { "type": "Point", "coordinates": [ 103.989125, 30.722926 ] } },
{ "type": "Feature", "properties": { "name": "成博文武学校", "type": "科教文化服务;学校;学校", "address": "土桥村金周路656号", "lng": 103.988781, "lat": 30.719703, "province": "四川省", "city": "成都市", "district": "金牛区" }, "geometry": { "type": "Point", "coordinates": [ 103.988781, 30.719703 ] } },
{ "type": "Feature", "properties": { "name": "成都铁路技工学校", "type": "科教文化服务;学校;职业技术学校", "address": "金周路530号附8号", "lng": 103.989125, "lat": 30.722926, "province": "四川省", "city": "成都市", "district": "金牛区" }, "geometry": { "type": "Point", "coordinates": [ 103.989125, 30.722926 ] } },
{ "type": "Feature", "properties": { "name": "新东方烹饪学校", "type": "科教文化服务;学校;职业技术学校", "address": "土桥镇金周路626号", "lng": 103.990009, "lat": 30.720474, "province": "四川省", "city": "成都市", "district": "金牛区" }, "geometry": { "type": "Point", "coordinates": [ 103.990009, 30.720474 ] } },
{ "type": "Feature", "properties": { "name": "成都伟特电气研究所", "type": "科教文化服务;科研机构;科研机构", "address": "金周路兴科南路8号", "lng": 103.99379, "lat": 30.718643, "province": "四川省", "city": "成都市", "district": "金牛区" }, "geometry": { "type": "Point", "coordinates": [ 103.99379, 30.718643 ] } },
{ "type": "Feature", "properties": { "name": "成都艾迪康医学检测实验室", "type": "科教文化服务;科研机构;科研机构", "address": "高新技术产业园兴科中路9号1栋", "lng": 103.990017, "lat": 30.719013, "province": "四川省", "city": "成都市", "district": "金牛区" }, "geometry": { "type": "Point", "coordinates": [ 103.990017, 30.719013 ] } },
{ "type": "Feature", "properties": { "name": "长征驾校", "type": "科教文化服务;驾校;驾校", "address": "金周路614号", "lng": 103.99052, "lat": 30.720139, "province": "四川省", "city": "成都市", "district": "金牛区" }, "geometry": { "type": "Point", "coordinates": [ 103.99052, 30.720139 ] } },
{ "type": "Feature", "properties": { "name": "中铁二局特种作业培训中心", "type": "科教文化服务;培训机构;培训机构", "address": "金周路530号附8号", "lng": 103.989125, "lat": 30.722926, "province": "四川省", "city": "成都市", "district": "金牛区" }, "geometry": { "type": "Point", "coordinates": [ 103.989125, 30.722926 ] } },
{ "type": "Feature", "properties": { "name": "华安驾校金牛分校训练基地", "type": "科教文化服务;驾校;驾校", "address": "金周路", "lng": 103.987943, "lat": 30.723509, "province": "四川省", "city": "成都市", "district": "金牛区" }, "geometry": { "type": "Point", "coordinates": [ 103.987943, 30.723509 ] } },
{ "type": "Feature", "properties": { "name": "成都神力工程机械职业技能培训学校", "type": "科教文化服务;培训机构;培训机构", "address": "金周路530号附8号", "lng": 103.989125, "lat": 30.722926, "province": "四川省", "city": "成都市", "district": "金牛区" }, "geometry": { "type": "Point", "coordinates": [ 103.989125, 30.722926 ] } },
{ "type": "Feature", "properties": { "name": "新东方培训学校", "type": "科教文化服务;培训机构;培训机构", "address": "金泉街道金周路626号", "lng": 103.989735, "lat": 30.720498, "province": "四川省", "city": "成都市", "district": "金牛区" }, "geometry": { "type": "Point", "coordinates": [ 103.989735, 30.720498 ] } },
{ "type": "Feature", "properties": { "name": "金牛中学", "type": "科教文化服务;学校;中学", "address": "土桥金周路198号", "lng": 104.003615, "lat": 30.724739, "province": "四川省", "city": "成都市", "district": "金牛区" }, "geometry": { "type": "Point", "coordinates": [ 104.003615, 30.724739 ] } },
{ "type": "Feature", "properties": { "name": "金泉小学校", "type": "科教文化服务;学校;小学", "address": "金周路197号", "lng": 104.004548, "lat": 30.723665, "province": "四川省", "city": "成都市", "district": "金牛区" }, "geometry": { "type": "Point", "coordinates": [ 104.004548, 30.723665 ] } },
{ "type": "Feature", "properties": { "name": "成都市金牛区机关二幼金周园区", "type": "科教文化服务;学校;幼儿园", "address": "信息园西路188号", "lng": 104.003886, "lat": 30.723407, "province": "四川省", "city": "成都市", "district": "金牛区" }, "geometry": { "type": "Point", "coordinates": [ 104.003886, 30.723407 ] } },
{ "type": "Feature", "properties": { "name": "金牛区双何幼儿园", "type": "科教文化服务;学校;幼儿园", "address": "金周路465号", "lng": 103.997468, "lat": 30.721799, "province": "四川省", "city": "成都市", "district": "金牛区" }, "geometry": { "type": "Point", "coordinates": [ 103.997468, 30.721799 ] } },
{ "type": "Feature", "properties": { "name": "成都衢上文化传播有限公司", "type": "科教文化服务;科教文化场所;科教文化场所", "address": "金泉路12号", "lng": 104.012908, "lat": 30.719991, "province": "四川省", "city": "成都市", "district": "金牛区" }, "geometry": { "type": "Point", "coordinates": [ 104.012908, 30.719991 ] } },
{ "type": "Feature", "properties": { "name": "浩浩鉴习文化艺术中心", "type": "科教文化服务;科教文化场所;科教文化场所", "address": "金科北路166号3层", "lng": 104.007436, "lat": 30.722009, "province": "四川省", "city": "成都市", "district": "金牛区" }, "geometry": { "type": "Point", "coordinates": [ 104.007436, 30.722009 ] } },
{ "type": "Feature", "properties": { "name": "易园园林博物馆", "type": "科教文化服务;博物馆;博物馆", "address": "金泉路8号", "lng": 104.014895, "lat": 30.717797, "province": "四川省", "city": "成都市", "district": "金牛区" }, "geometry": { "type": "Point", "coordinates": [ 104.014895, 30.717797 ] } },
{ "type": "Feature", "properties": { "name": "易园园林博物馆", "type": "科教文化服务;博物馆;博物馆", "address": "金泉路10", "lng": 104.013655, "lat": 30.717269, "province": "四川省", "city": "成都市", "district": "金牛区" }, "geometry": { "type": "Point", "coordinates": [ 104.013655, 30.717269 ] } },
{ "type": "Feature", "properties": { "name": "和悦艺术馆", "type": "科教文化服务;展览馆;展览馆", "address": "兴平路100号住业大厦2栋", "lng": 104.006536, "lat": 30.718795, "province": "四川省", "city": "成都市", "district": "金牛区" }, "geometry": { "type": "Point", "coordinates": [ 104.006536, 30.718795 ] } },
{ "type": "Feature", "properties": { "name": "成都金榜起点教育", "type": "科教文化服务;培训机构;培训机构", "address": "金科北路166号2层", "lng": 104.008008, "lat": 30.721741, "province": "四川省", "city": "成都市", "district": "金牛区" }, "geometry": { "type": "Point", "coordinates": [ 104.008008, 30.721741 ] } },
{ "type": "Feature", "properties": { "name": "成都市民道德讲堂", "type": "科教文化服务;培训机构;培训机构", "address": "金科北路166号附近", "lng": 104.008069, "lat": 30.72179, "province": "四川省", "city": "成都市", "district": "金牛区" }, "geometry": { "type": "Point", "coordinates": [ 104.008069, 30.72179 ] } },
{ "type": "Feature", "properties": { "name": "乐知书院", "type": "科教文化服务;培训机构;培训机构", "address": "金泉街道金泉路8号易园园林博物馆", "lng": 104.013655, "lat": 30.717269, "province": "四川省", "city": "成都市", "district": "金牛区" }, "geometry": { "type": "Point", "coordinates": [ 104.013655, 30.717269 ] } },
{ "type": "Feature", "properties": { "name": "浩浩教育", "type": "科教文化服务;培训机构;培训机构", "address": "金科北路166号", "lng": 104.007614, "lat": 30.721874, "province": "四川省", "city": "成都市", "district": "金牛区" }, "geometry": { "type": "Point", "coordinates": [ 104.007614, 30.721874 ] } },
{ "type": "Feature", "properties": { "name": "星高艺艺术培训学校", "type": "科教文化服务;培训机构;培训机构", "address": "西华街道金科北路国宾时光汇五幢三楼", "lng": 104.007597, "lat": 30.723242, "province": "四川省", "city": "成都市", "district": "金牛区" }, "geometry": { "type": "Point", "coordinates": [ 104.007597, 30.723242 ] } },
{ "type": "Feature", "properties": { "name": "青杠社区综合文化活动室", "type": "科教文化服务;文化宫;文化宫", "address": "西华大道599", "lng": 104.024584, "lat": 30.725907, "province": "四川省", "city": "成都市", "district": "金牛区" }, "geometry": { "type": "Point", "coordinates": [ 104.024584, 30.725907 ] } },
{ "type": "Feature", "properties": { "name": "四川电影电视学院金牛校区", "type": "科教文化服务;学校;高等院校", "address": "西华大道593号", "lng": 104.024552, "lat": 30.721359, "province": "四川省", "city": "成都市", "district": "金牛区" }, "geometry": { "type": "Point", "coordinates": [ 104.024552, 30.721359 ] } },
{ "type": "Feature", "properties": { "name": "人民北路小学·华侨城校区", "type": "科教文化服务;学校;小学", "address": "华丰路66号", "lng": 104.024693, "lat": 30.719215, "province": "四川省", "city": "成都市", "district": "金牛区" }, "geometry": { "type": "Point", "coordinates": [ 104.024693, 30.719215 ] } },
{ "type": "Feature", "properties": { "name": "四川师范大学电影电视学院", "type": "科教文化服务;学校;高等院校", "address": "西华大道593号", "lng": 104.024628, "lat": 30.72346, "province": "四川省", "city": "成都市", "district": "金牛区" }, "geometry": { "type": "Point", "coordinates": [ 104.024628, 30.72346 ] } },
{ "type": "Feature", "properties": { "name": "四川电影电视学院(金牛校区)-教授楼", "type": "科教文化服务;学校;高等院校", "address": "华严路8号", "lng": 104.024772, "lat": 30.720103, "province": "四川省", "city": "成都市", "district": "金牛区" }, "geometry": { "type": "Point", "coordinates": [ 104.024772, 30.720103 ] } },
{ "type": "Feature", "properties": { "name": "金苹果华侨城幼稚园", "type": "科教文化服务;学校;幼儿园", "address": "华丰路66号", "lng": 104.023443, "lat": 30.717801, "province": "四川省", "city": "成都市", "district": "金牛区" }, "geometry": { "type": "Point", "coordinates": [ 104.023443, 30.717801 ] } },
{ "type": "Feature", "properties": { "name": "瓦子林幼儿园", "type": "科教文化服务;学校;幼儿园", "address": "金青路88号", "lng": 104.016175, "lat": 30.724143, "province": "四川省", "city": "成都市", "district": "金牛区" }, "geometry": { "type": "Point", "coordinates": [ 104.016175, 30.724143 ] } },
{ "type": "Feature", "properties": { "name": "成都兴岷江电热应用研究所", "type": "科教文化服务;科研机构;科研机构", "address": "瓦子一组88号", "lng": 104.016039, "lat": 30.724465, "province": "四川省", "city": "成都市", "district": "金牛区" }, "geometry": { "type": "Point", "coordinates": [ 104.016039, 30.724465 ] } },
{ "type": "Feature", "properties": { "name": "四川电影电视学院(金牛校区)化装系", "type": "科教文化服务;学校;高等院校", "address": "华严路8号", "lng": 104.023608, "lat": 30.718808, "province": "四川省", "city": "成都市", "district": "金牛区" }, "geometry": { "type": "Point", "coordinates": [ 104.023608, 30.718808 ] } },
{ "type": "Feature", "properties": { "name": "四川电影电视学院金牛校区-图书馆", "type": "科教文化服务;图书馆;图书馆", "address": "沙西线9号", "lng": 104.023093, "lat": 30.720103, "province": "四川省", "city": "成都市", "district": "金牛区" }, "geometry": { "type": "Point", "coordinates": [ 104.023093, 30.720103 ] } },
{ "type": "Feature", "properties": { "name": "四川省变频自动化系统技术研究所", "type": "科教文化服务;科研机构;科研机构", "address": "华严路47号", "lng": 104.018332, "lat": 30.722959, "province": "四川省", "city": "成都市", "district": "金牛区" }, "geometry": { "type": "Point", "coordinates": [ 104.018332, 30.722959 ] } },
{ "type": "Feature", "properties": { "name": "四川电影电视学院金牛校区-戏剧影视", "type": "科教文化服务;科教文化场所;科教文化场所", "address": "西华街道华严路8号四川电影电视学院", "lng": 104.023316, "lat": 30.718998, "province": "四川省", "city": "成都市", "district": "金牛区" }, "geometry": { "type": "Point", "coordinates": [ 104.023316, 30.718998 ] } },
{ "type": "Feature", "properties": { "name": "魅尔文化艺术教育", "type": "科教文化服务;培训机构;培训机构", "address": "西华大道10号附1141", "lng": 104.033167, "lat": 30.718258, "province": "四川省", "city": "成都市", "district": "金牛区" }, "geometry": { "type": "Point", "coordinates": [ 104.033167, 30.718258 ] } },
{ "type": "Feature", "properties": { "name": "四川电影电视学院金牛校区(东北门)", "type": "科教文化服务;学校;高等院校|通行设施;临街院门;临街院门", "address": "西华大道593号", "lng": 104.0262, "lat": 30.724128, "province": "四川省", "city": "成都市", "district": "金牛区" }, "geometry": { "type": "Point", "coordinates": [ 104.0262, 30.724128 ] } },
{ "type": "Feature", "properties": { "name": "贝艺登幼儿园", "type": "科教文化服务;学校;幼儿园", "address": "西华大道府河星城608号103栋", "lng": 104.028899, "lat": 30.726628, "province": "四川省", "city": "成都市", "district": "金牛区" }, "geometry": { "type": "Point", "coordinates": [ 104.028899, 30.726628 ] } },
{ "type": "Feature", "properties": { "name": "雅生双语托管", "type": "科教文化服务;培训机构;培训机构", "address": "西华大道10号附1145", "lng": 104.033341, "lat": 30.718172, "province": "四川省", "city": "成都市", "district": "金牛区" }, "geometry": { "type": "Point", "coordinates": [ 104.033341, 30.718172 ] } },
{ "type": "Feature", "properties": { "name": "武道联盟", "type": "体育休闲服务;运动场馆;运动场所|科教文化服务;培训机构;培训机构", "address": "西华大道608号", "lng": 104.029838, "lat": 30.72689, "province": "四川省", "city": "成都市", "district": "金牛区" }, "geometry": { "type": "Point", "coordinates": [ 104.029838, 30.72689 ] } },
{ "type": "Feature", "properties": { "name": "伯尔尼国际教育", "type": "科教文化服务;培训机构;培训机构", "address": "西华大道10号附1141", "lng": 104.033167, "lat": 30.718258, "province": "四川省", "city": "成都市", "district": "金牛区" }, "geometry": { "type": "Point", "coordinates": [ 104.033167, 30.718258 ] } },
{ "type": "Feature", "properties": { "name": "贝艺登幼儿教育培训机构", "type": "科教文化服务;学校;幼儿园|科教文化服务;培训机构;培训机构", "address": "西华大道608号", "lng": 104.028745, "lat": 30.726715, "province": "四川省", "city": "成都市", "district": "金牛区" }, "geometry": { "type": "Point", "coordinates": [ 104.028745, 30.726715 ] } },
{ "type": "Feature", "properties": { "name": "成都鼎蓉文化传播有限公司", "type": "科教文化服务;科教文化场所;科教文化场所", "address": "金府路金府国际27层", "lng": 104.043105, "lat": 30.717322, "province": "四川省", "city": "成都市", "district": "金牛区" }, "geometry": { "type": "Point", "coordinates": [ 104.043105, 30.717322 ] } },
{ "type": "Feature", "properties": { "name": "四川朗阅文化传播有限公司", "type": "科教文化服务;科教文化场所;科教文化场所", "address": "金府路799号金府国际2栋20层19号", "lng": 104.043293, "lat": 30.717437, "province": "四川省", "city": "成都市", "district": "金牛区" }, "geometry": { "type": "Point", "coordinates": [ 104.043293, 30.717437 ] } },
{ "type": "Feature", "properties": { "name": "时代英语杂志社", "type": "科教文化服务;传媒机构;杂志社", "address": "金府路799号金府国际1栋17楼13号", "lng": 104.043105, "lat": 30.717322, "province": "四川省", "city": "成都市", "district": "金牛区" }, "geometry": { "type": "Point", "coordinates": [ 104.043105, 30.717322 ] } },
{ "type": "Feature", "properties": { "name": "成都金府华美达大酒店-会议厅", "type": "科教文化服务;会展中心;会展中心", "address": "金府路799号成都金府华美达大酒店", "lng": 104.04383, "lat": 30.717288, "province": "四川省", "city": "成都市", "district": "金牛区" }, "geometry": { "type": "Point", "coordinates": [ 104.04383, 30.717288 ] } },
{ "type": "Feature", "properties": { "name": "成都华侨城国际影像艺术中心", "type": "科教文化服务;展览馆;展览馆", "address": "北三环路一段附近", "lng": 104.039444, "lat": 30.72191, "province": "四川省", "city": "成都市", "district": "金牛区" }, "geometry": { "type": "Point", "coordinates": [ 104.039444, 30.72191 ] } },
{ "type": "Feature", "properties": { "name": "华侨城(成都)视觉艺术中心", "type": "科教文化服务;展览馆;展览馆", "address": "北三环路一段附近", "lng": 104.038083, "lat": 30.720456, "province": "四川省", "city": "成都市", "district": "金牛区" }, "geometry": { "type": "Point", "coordinates": [ 104.038083, 30.720456 ] } },
{ "type": "Feature", "properties": { "name": "中国·企业家日报社", "type": "科教文化服务;传媒机构;报社", "address": "沙河源街道三环路内侧成彭立交旁(临水雅园内)", "lng": 104.045981, "lat": 30.723966, "province": "四川省", "city": "成都市", "district": "金牛区" }, "geometry": { "type": "Point", "coordinates": [ 104.045981, 30.723966 ] } },
{ "type": "Feature", "properties": { "name": "四川民族教育报社", "type": "科教文化服务;传媒机构;报社", "address": "成彭立交旁", "lng": 104.045981, "lat": 30.723966, "province": "四川省", "city": "成都市", "district": "金牛区" }, "geometry": { "type": "Point", "coordinates": [ 104.045981, 30.723966 ] } },
{ "type": "Feature", "properties": { "name": "广东省冶金建筑设计研究院", "type": "科教文化服务;科研机构;科研机构", "address": "金府路金府国际2栋29楼1号", "lng": 104.04382, "lat": 30.71701, "province": "四川省", "city": "成都市", "district": "金牛区" }, "geometry": { "type": "Point", "coordinates": [ 104.04382, 30.71701 ] } },
{ "type": "Feature", "properties": { "name": "红彩翔教育", "type": "科教文化服务;培训机构;培训机构", "address": "金府国际2栋20楼5号主校区", "lng": 104.04303, "lat": 30.717629, "province": "四川省", "city": "成都市", "district": "金牛区" }, "geometry": { "type": "Point", "coordinates": [ 104.04303, 30.717629 ] } },
{ "type": "Feature", "properties": { "name": "金蝶软件教育培训中心", "type": "科教文化服务;培训机构;培训机构", "address": "金府路金府国际19层", "lng": 104.043105, "lat": 30.717322, "province": "四川省", "city": "成都市", "district": "金牛区" }, "geometry": { "type": "Point", "coordinates": [ 104.043105, 30.717322 ] } },
{ "type": "Feature", "properties": { "name": "成都市第四十四中学校", "type": "科教文化服务;学校;中学", "address": "沙河源街道新泉路32号", "lng": 104.05197, "lat": 30.721196, "province": "四川省", "city": "成都市", "district": "金牛区" }, "geometry": { "type": "Point", "coordinates": [ 104.05197, 30.721196 ] } },
{ "type": "Feature", "properties": { "name": "沙河源小学校", "type": "科教文化服务;学校;小学", "address": "福泉路21号", "lng": 104.0547, "lat": 30.721812, "province": "四川省", "city": "成都市", "district": "金牛区" }, "geometry": { "type": "Point", "coordinates": [ 104.0547, 30.721812 ] } },
{ "type": "Feature", "properties": { "name": "成都市洞子口职业高级中学校", "type": "科教文化服务;学校;职业技术学校", "address": "洞子口金泉路32号", "lng": 104.0521, "lat": 30.721761, "province": "四川省", "city": "成都市", "district": "金牛区" }, "geometry": { "type": "Point", "coordinates": [ 104.0521, 30.721761 ] } },
{ "type": "Feature", "properties": { "name": "沙河源和平幼儿园", "type": "科教文化服务;学校;幼儿园", "address": "福泉路21-24号附近", "lng": 104.054279, "lat": 30.722357, "province": "四川省", "city": "成都市", "district": "金牛区" }, "geometry": { "type": "Point", "coordinates": [ 104.054279, 30.722357 ] } },
{ "type": "Feature", "properties": { "name": "成都影像艺术馆", "type": "科教文化服务;展览馆;展览馆", "address": "中环路金府路段西50米", "lng": 104.046419, "lat": 30.720539, "province": "四川省", "city": "成都市", "district": "金牛区" }, "geometry": { "type": "Point", "coordinates": [ 104.046419, 30.720539 ] } },
{ "type": "Feature", "properties": { "name": "舞韵专业舞蹈瑜伽馆", "type": "科教文化服务;培训机构;培训机构", "address": "中环路洞子口路段附近", "lng": 104.055833, "lat": 30.722509, "province": "四川省", "city": "成都市", "district": "金牛区" }, "geometry": { "type": "Point", "coordinates": [ 104.055833, 30.722509 ] } },
{ "type": "Feature", "properties": { "name": "成都市洞子口职业高中", "type": "科教文化服务;学校;职业技术学校", "address": "新泉路与福得路交叉口北50米", "lng": 104.052414, "lat": 30.721026, "province": "四川省", "city": "成都市", "district": "金牛区" }, "geometry": { "type": "Point", "coordinates": [ 104.052414, 30.721026 ] } },
{ "type": "Feature", "properties": { "name": "成都市红孩儿幼儿园", "type": "科教文化服务;学校;幼儿园", "address": "洞子口北街6号附45号", "lng": 104.05158, "lat": 30.723763, "province": "四川省", "city": "成都市", "district": "金牛区" }, "geometry": { "type": "Point", "coordinates": [ 104.05158, 30.723763 ] } },
{ "type": "Feature", "properties": { "name": "开心萨姆英语培训学校", "type": "科教文化服务;科教文化场所;科教文化场所", "address": "洞子口东口源上金府168号附42号", "lng": 104.054968, "lat": 30.722081, "province": "四川省", "city": "成都市", "district": "金牛区" }, "geometry": { "type": "Point", "coordinates": [ 104.054968, 30.722081 ] } },
{ "type": "Feature", "properties": { "name": "浣笔学堂", "type": "科教文化服务;培训机构;培训机构", "address": "洞子口路168号源上金府4栋附8号", "lng": 104.055525, "lat": 30.722697, "province": "四川省", "city": "成都市", "district": "金牛区" }, "geometry": { "type": "Point", "coordinates": [ 104.055525, 30.722697 ] } },
{ "type": "Feature", "properties": { "name": "成都市民道德讲堂", "type": "科教文化服务;培训机构;培训机构", "address": "洞子口路168号-附42号", "lng": 104.05493, "lat": 30.72155, "province": "四川省", "city": "成都市", "district": "金牛区" }, "geometry": { "type": "Point", "coordinates": [ 104.05493, 30.72155 ] } },
{ "type": "Feature", "properties": { "name": "英语艺术培训中心", "type": "科教文化服务;培训机构;培训机构", "address": "中环路洞子口路段168-附50号附近", "lng": 104.054984, "lat": 30.722144, "province": "四川省", "city": "成都市", "district": "金牛区" }, "geometry": { "type": "Point", "coordinates": [ 104.054984, 30.722144 ] } },
{ "type": "Feature", "properties": { "name": "成都金牛区职教中心", "type": "科教文化服务;学校;职业技术学校", "address": "金泉路32号", "lng": 104.051985, "lat": 30.721194, "province": "四川省", "city": "成都市", "district": "金牛区" }, "geometry": { "type": "Point", "coordinates": [ 104.051985, 30.721194 ] } },
{ "type": "Feature", "properties": { "name": "一度教育(中环路洞子口路段)", "type": "科教文化服务;培训机构;培训机构", "address": "洞子口源上金府五栋楼下", "lng": 104.05496, "lat": 30.722467, "province": "四川省", "city": "成都市", "district": "金牛区" }, "geometry": { "type": "Point", "coordinates": [ 104.05496, 30.722467 ] } },
{ "type": "Feature", "properties": { "name": "开心莎姆英语艺术培训学校(成都分校)", "type": "科教文化服务;培训机构;培训机构", "address": "新泉路与福泉路交叉口东南150米", "lng": 104.055047, "lat": 30.722023, "province": "四川省", "city": "成都市", "district": "金牛区" }, "geometry": { "type": "Point", "coordinates": [ 104.055047, 30.722023 ] } },
{ "type": "Feature", "properties": { "name": "四川师范大学教育学学院学前教育专业自考教学点", "type": "科教文化服务;学校;成人教育", "address": "沙河源街道金泉路32号", "lng": 104.051985, "lat": 30.721194, "province": "四川省", "city": "成都市", "district": "金牛区" }, "geometry": { "type": "Point", "coordinates": [ 104.051985, 30.721194 ] } },
{ "type": "Feature", "properties": { "name": "博卡拉顿泉水幼儿园", "type": "科教文化服务;学校;幼儿园", "address": "灵润路10号", "lng": 104.065247, "lat": 30.726698, "province": "四川省", "city": "成都市", "district": "金牛区" }, "geometry": { "type": "Point", "coordinates": [ 104.065247, 30.726698 ] } },
{ "type": "Feature", "properties": { "name": "源泉幼儿园(和平街)", "type": "科教文化服务;学校;幼儿园", "address": "泉水东路2号21栋附101号", "lng": 104.064182, "lat": 30.720586, "province": "四川省", "city": "成都市", "district": "金牛区" }, "geometry": { "type": "Point", "coordinates": [ 104.064182, 30.720586 ] } },
{ "type": "Feature", "properties": { "name": "愽卡拉顿泉水幼儿园", "type": "科教文化服务;学校;幼儿园", "address": "沙河源街道朗润路10号", "lng": 104.06251, "lat": 30.726583, "province": "四川省", "city": "成都市", "district": "金牛区" }, "geometry": { "type": "Point", "coordinates": [ 104.06251, 30.726583 ] } },
{ "type": "Feature", "properties": { "name": "酷索依琴行", "type": "科教文化服务;培训机构;培训机构", "address": "洞子口路168号源上金府附20号", "lng": 104.056395, "lat": 30.722428, "province": "四川省", "city": "成都市", "district": "金牛区" }, "geometry": { "type": "Point", "coordinates": [ 104.056395, 30.722428 ] } },
{ "type": "Feature", "properties": { "name": "金阳艺术培训", "type": "科教文化服务;培训机构;培训机构", "address": "蓉北商贸大道二段278-附14号附近", "lng": 104.058764, "lat": 30.721317, "province": "四川省", "city": "成都市", "district": "金牛区" }, "geometry": { "type": "Point", "coordinates": [ 104.058764, 30.721317 ] } },
{ "type": "Feature", "properties": { "name": "鸿鹄优翼教育", "type": "科教文化服务;培训机构;培训机构", "address": "泉水东路2-3号附近", "lng": 104.062577, "lat": 30.722924, "province": "四川省", "city": "成都市", "district": "金牛区" }, "geometry": { "type": "Point", "coordinates": [ 104.062577, 30.722924 ] } },
{ "type": "Feature", "properties": { "name": "萌升教育咨询有限公司", "type": "科教文化服务;培训机构;培训机构", "address": "蓝光·花满庭13栋1单元1层", "lng": 104.059888, "lat": 30.72239, "province": "四川省", "city": "成都市", "district": "金牛区" }, "geometry": { "type": "Point", "coordinates": [ 104.059888, 30.72239 ] } },
{ "type": "Feature", "properties": { "name": "金立方教育", "type": "科教文化服务;培训机构;培训机构", "address": "泉水路与蓉北商贸大道二段交叉口西南50米", "lng": 104.057938, "lat": 30.72217, "province": "四川省", "city": "成都市", "district": "金牛区" }, "geometry": { "type": "Point", "coordinates": [ 104.057938, 30.72217 ] } },
{ "type": "Feature", "properties": { "name": "云汉网络传媒有限责任公司", "type": "科教文化服务;科教文化场所;科教文化场所", "address": "蓉北商贸大道文轩路6号", "lng": 104.06205, "lat": 30.717552, "province": "四川省", "city": "成都市", "district": "金牛区" }, "geometry": { "type": "Point", "coordinates": [ 104.06205, 30.717552 ] } },
{ "type": "Feature", "properties": { "name": "成都川藏行文化传播有限公司", "type": "科教文化服务;科教文化场所;科教文化场所", "address": "荷花池中药材批发市场8街1761号", "lng": 104.065549, "lat": 30.722594, "province": "四川省", "city": "成都市", "district": "金牛区" }, "geometry": { "type": "Point", "coordinates": [ 104.065549, 30.722594 ] } },
{ "type": "Feature", "properties": { "name": "和平地区王贾桥小学", "type": "科教文化服务;学校;小学", "address": "沙河源街道王贾社区", "lng": 104.071418, "lat": 30.718869, "province": "四川省", "city": "成都市", "district": "金牛区" }, "geometry": { "type": "Point", "coordinates": [ 104.071418, 30.718869 ] } },
{ "type": "Feature", "properties": { "name": "金韵幼儿园", "type": "科教文化服务;学校;幼儿园", "address": "源王贾路19号", "lng": 104.066888, "lat": 30.718839, "province": "四川省", "city": "成都市", "district": "金牛区" }, "geometry": { "type": "Point", "coordinates": [ 104.066888, 30.718839 ] } },
{ "type": "Feature", "properties": { "name": "金草地幼儿园", "type": "科教文化服务;学校;幼儿园", "address": "王贾桥王贾小学", "lng": 104.070649, "lat": 30.719439, "province": "四川省", "city": "成都市", "district": "金牛区" }, "geometry": { "type": "Point", "coordinates": [ 104.070649, 30.719439 ] } },
{ "type": "Feature", "properties": { "name": "长征驾校报名点(王贾西街)", "type": "科教文化服务;驾校;驾校|生活服务;生活服务场所;生活服务场所", "address": "泉水东路2号-附29号", "lng": 104.066363, "lat": 30.72032, "province": "四川省", "city": "成都市", "district": "金牛区" }, "geometry": { "type": "Point", "coordinates": [ 104.066363, 30.72032 ] } },
{ "type": "Feature", "properties": { "name": "成都市民道德讲堂", "type": "科教文化服务;培训机构;培训机构", "address": "沙河源街道王贾社区和平地区王贾桥小学附近", "lng": 104.071406, "lat": 30.719053, "province": "四川省", "city": "成都市", "district": "金牛区" }, "geometry": { "type": "Point", "coordinates": [ 104.071406, 30.719053 ] } },
{ "type": "Feature", "properties": { "name": "长城驾校", "type": "科教文化服务;驾校;驾校", "address": "王贾西街与王贾路交叉口北150米", "lng": 104.069093, "lat": 30.721756, "province": "四川省", "city": "成都市", "district": "金牛区" }, "geometry": { "type": "Point", "coordinates": [ 104.069093, 30.721756 ] } },
{ "type": "Feature", "properties": { "name": "一度教育", "type": "科教文化服务;培训机构;培训机构", "address": "王贾西街与王贾路交叉口南150米", "lng": 104.067426, "lat": 30.719583, "province": "四川省", "city": "成都市", "district": "金牛区" }, "geometry": { "type": "Point", "coordinates": [ 104.067426, 30.719583 ] } },
{ "type": "Feature", "properties": { "name": "泓宇舞蹈", "type": "科教文化服务;培训机构;培训机构", "address": "沙河源街道王贾桥三九绿城四栋1201", "lng": 104.070395, "lat": 30.717445, "province": "四川省", "city": "成都市", "district": "金牛区" }, "geometry": { "type": "Point", "coordinates": [ 104.070395, 30.717445 ] } },
{ "type": "Feature", "properties": { "name": "双桥驾校", "type": "科教文化服务;驾校;驾校", "address": "沙河源街道王贾路18号三九绿城4幢1201", "lng": 104.070395, "lat": 30.717445, "province": "四川省", "city": "成都市", "district": "金牛区" }, "geometry": { "type": "Point", "coordinates": [ 104.070395, 30.717445 ] } },
{ "type": "Feature", "properties": { "name": "四川艺彬文化传播有限公司", "type": "科教文化服务;科教文化场所;科教文化场所", "address": "北三环路二段附近", "lng": 104.077708, "lat": 30.721837, "province": "四川省", "city": "成都市", "district": "金牛区" }, "geometry": { "type": "Point", "coordinates": [ 104.077708, 30.721837 ] } },
{ "type": "Feature", "properties": { "name": "成都市红花学校", "type": "科教文化服务;学校;学校", "address": "凤碾路韦家碾三路100号", "lng": 104.083458, "lat": 30.717638, "province": "四川省", "city": "成都市", "district": "金牛区" }, "geometry": { "type": "Point", "coordinates": [ 104.083458, 30.717638 ] } },
{ "type": "Feature", "properties": { "name": "梧桐小学校", "type": "科教文化服务;学校;小学", "address": "韦家碾三路100", "lng": 104.083458, "lat": 30.717638, "province": "四川省", "city": "成都市", "district": "金牛区" }, "geometry": { "type": "Point", "coordinates": [ 104.083458, 30.717638 ] } },
{ "type": "Feature", "properties": { "name": "梦工坊", "type": "科教文化服务;培训机构;培训机构", "address": "凤凰山街道韦家碾三路331号附22号", "lng": 104.076682, "lat": 30.718212, "province": "四川省", "city": "成都市", "district": "金牛区" }, "geometry": { "type": "Point", "coordinates": [ 104.076682, 30.718212 ] } },
{ "type": "Feature", "properties": { "name": "静语斋青少年书画培训", "type": "科教文化服务;培训机构;培训机构", "address": "韦家碾一路118号C栋附近", "lng": 104.076732, "lat": 30.721017, "province": "四川省", "city": "成都市", "district": "金牛区" }, "geometry": { "type": "Point", "coordinates": [ 104.076732, 30.721017 ] } },
{ "type": "Feature", "properties": { "name": "蜀弘驾校", "type": "科教文化服务;驾校;驾校", "address": "洞子口路芙华新大陆", "lng": 104.077345, "lat": 30.718145, "province": "四川省", "city": "成都市", "district": "金牛区" }, "geometry": { "type": "Point", "coordinates": [ 104.077345, 30.718145 ] } },
{ "type": "Feature", "properties": { "name": "金韦社区未成年人心理辅导中心", "type": "科教文化服务;培训机构;培训机构", "address": "韦家碾三路189-191号附近", "lng": 104.079164, "lat": 30.71801, "province": "四川省", "city": "成都市", "district": "金牛区" }, "geometry": { "type": "Point", "coordinates": [ 104.079164, 30.71801 ] } },
{ "type": "Feature", "properties": { "name": "成都市成华区红花学校", "type": "科教文化服务;学校;小学", "address": "青龙乡荆竹村241", "lng": 104.089135, "lat": 30.718026, "province": "四川省", "city": "成都市", "district": "成华区" }, "geometry": { "type": "Point", "coordinates": [ 104.089135, 30.718026 ] } },
{ "type": "Feature", "properties": { "name": "公交驾校训练场", "type": "科教文化服务;驾校;驾校", "address": "三环路", "lng": 104.09292, "lat": 30.721477, "province": "四川省", "city": "成都市", "district": "成华区" }, "geometry": { "type": "Point", "coordinates": [ 104.09292, 30.721477 ] } },
{ "type": "Feature", "properties": { "name": "蓝天幼儿园", "type": "科教文化服务;学校;幼儿园", "address": "凤凰山附近", "lng": 104.101363, "lat": 30.72311, "province": "四川省", "city": "成都市", "district": "金牛区" }, "geometry": { "type": "Point", "coordinates": [ 104.101363, 30.72311 ] } },
{ "type": "Feature", "properties": { "name": "美当创艺美术馆", "type": "科教文化服务;美术馆;美术馆", "address": "荆翠西路金科中心7栋5层512", "lng": 104.103584, "lat": 30.717136, "province": "四川省", "city": "成都市", "district": "成华区" }, "geometry": { "type": "Point", "coordinates": [ 104.103584, 30.717136 ] } },
{ "type": "Feature", "properties": { "name": "胜威驾校", "type": "科教文化服务;驾校;驾校", "address": "熊猫大道西200米", "lng": 104.102441, "lat": 30.72647, "province": "四川省", "city": "成都市", "district": "金牛区" }, "geometry": { "type": "Point", "coordinates": [ 104.102441, 30.72647 ] } },
{ "type": "Feature", "properties": { "name": "同心缘壁纸·成都培训中心", "type": "科教文化服务;培训机构;培训机构", "address": "荆翠西路成都金科中心7栋1701号", "lng": 104.103409, "lat": 30.717112, "province": "四川省", "city": "成都市", "district": "成华区" }, "geometry": { "type": "Point", "coordinates": [ 104.103409, 30.717112 ] } },
{ "type": "Feature", "properties": { "name": "光亚儿童学校", "type": "科教文化服务;学校;幼儿园", "address": "熊猫大道南200米", "lng": 104.11481, "lat": 30.72217, "province": "四川省", "city": "成都市", "district": "成华区" }, "geometry": { "type": "Point", "coordinates": [ 104.11481, 30.72217 ] } },
{ "type": "Feature", "properties": { "name": "四川勤思特教育", "type": "科教文化服务;培训机构;培训机构", "address": "外北蜀陵路南200米", "lng": 104.113903, "lat": 30.725969, "province": "四川省", "city": "成都市", "district": "成华区" }, "geometry": { "type": "Point", "coordinates": [ 104.113903, 30.725969 ] } },
{ "type": "Feature", "properties": { "name": "金盾驾校训练场", "type": "科教文化服务;驾校;驾校", "address": "蓉都大道将军碑路附近", "lng": 104.106208, "lat": 30.72395, "province": "四川省", "city": "成都市", "district": "成华区" }, "geometry": { "type": "Point", "coordinates": [ 104.106208, 30.72395 ] } },
{ "type": "Feature", "properties": { "name": "儿童素质教育孵化中心", "type": "科教文化服务;培训机构;培训机构", "address": "熊猫大道南150米", "lng": 104.11467, "lat": 30.72222, "province": "四川省", "city": "成都市", "district": "成华区" }, "geometry": { "type": "Point", "coordinates": [ 104.11467, 30.72222 ] } },
{ "type": "Feature", "properties": { "name": "白莲社区幼稚园", "type": "科教文化服务;学校;幼儿园", "address": "成华区青龙街道白莲社区二组", "lng": 104.113401, "lat": 30.725752, "province": "四川省", "city": "成都市", "district": "成华区" }, "geometry": { "type": "Point", "coordinates": [ 104.113401, 30.725752 ] } },
{ "type": "Feature", "properties": { "name": "青龙乡白莲池小学校", "type": "科教文化服务;学校;小学", "address": "青龙乡白莲村", "lng": 104.122656, "lat": 30.719745, "province": "四川省", "city": "成都市", "district": "成华区" }, "geometry": { "type": "Point", "coordinates": [ 104.122656, 30.719745 ] } },
{ "type": "Feature", "properties": { "name": "拱辰白莲小学", "type": "科教文化服务;学校;小学", "address": "拱辰白莲村", "lng": 104.123574, "lat": 30.721561, "province": "四川省", "city": "成都市", "district": "成华区" }, "geometry": { "type": "Point", "coordinates": [ 104.123574, 30.721561 ] } },
{ "type": "Feature", "properties": { "name": "通威集团水产研究所", "type": "科教文化服务;科研机构;科研机构", "address": "熊猫大道15号", "lng": 104.118294, "lat": 30.723378, "province": "四川省", "city": "成都市", "district": "成华区" }, "geometry": { "type": "Point", "coordinates": [ 104.118294, 30.723378 ] } },
{ "type": "Feature", "properties": { "name": "白莲实验幼儿园", "type": "科教文化服务;学校;幼儿园", "address": "致和路东20米", "lng": 104.122641, "lat": 30.719804, "province": "四川省", "city": "成都市", "district": "成华区" }, "geometry": { "type": "Point", "coordinates": [ 104.122641, 30.719804 ] } },
{ "type": "Feature", "properties": { "name": "启蒙幼儿园", "type": "科教文化服务;学校;幼儿园", "address": "熊猫大道1103号", "lng": 104.134985, "lat": 30.724154, "province": "四川省", "city": "成都市", "district": "成华区" }, "geometry": { "type": "Point", "coordinates": [ 104.134985, 30.724154 ] } },
{ "type": "Feature", "properties": { "name": "金太阳幼儿园(熊猫大道)", "type": "科教文化服务;学校;幼儿园", "address": "熊猫大道1016号", "lng": 104.129699, "lat": 30.721136, "province": "四川省", "city": "成都市", "district": "成华区" }, "geometry": { "type": "Point", "coordinates": [ 104.129699, 30.721136 ] } },
{ "type": "Feature", "properties": { "name": "幸福域文化传播", "type": "科教文化服务;科教文化场所;科教文化场所", "address": "熊猫大道1248号3楼103室", "lng": 104.138895, "lat": 30.725872, "province": "四川省", "city": "成都市", "district": "成华区" }, "geometry": { "type": "Point", "coordinates": [ 104.138895, 30.725872 ] } },
{ "type": "Feature", "properties": { "name": "成都瑞贝卡文化传播有限公司", "type": "科教文化服务;科教文化场所;科教文化场所", "address": "老龙青路与蜀龙路交叉口南100米", "lng": 104.14811, "lat": 30.717405, "province": "四川省", "city": "成都市", "district": "成华区" }, "geometry": { "type": "Point", "coordinates": [ 104.14811, 30.717405 ] } },
{ "type": "Feature", "properties": { "name": "加州阳光田园幼儿园", "type": "科教文化服务;学校;幼儿园", "address": "龙潭寺同乐社区北湖印象", "lng": 104.168425, "lat": 30.717164, "province": "四川省", "city": "成都市", "district": "成华区" }, "geometry": { "type": "Point", "coordinates": [ 104.168425, 30.717164 ] } },
{ "type": "Feature", "properties": { "name": "玉珏拉丁舞培训中心", "type": "科教文化服务;培训机构;培训机构", "address": "景观大道南100米", "lng": 104.166441, "lat": 30.719182, "province": "四川省", "city": "成都市", "district": "成华区" }, "geometry": { "type": "Point", "coordinates": [ 104.166441, 30.719182 ] } },
{ "type": "Feature", "properties": { "name": "成都天府职业技术学校", "type": "科教文化服务;学校;职业技术学校", "address": "教学点:成都金牛区土龙路61号龙泉教学点:龙泉驿区锦宏大道1号", "lng": 103.972453, "lat": 30.713495, "province": "四川省", "city": "成都市", "district": "金牛区" }, "geometry": { "type": "Point", "coordinates": [ 103.972453, 30.713495 ] } },
{ "type": "Feature", "properties": { "name": "成都师范学院美术系五月花教学部", "type": "科教文化服务;学校;高等院校", "address": "花石路68号成都五月花计算机专业学院附近", "lng": 103.967817, "lat": 30.714916, "province": "四川省", "city": "成都市", "district": "金牛区" }, "geometry": { "type": "Point", "coordinates": [ 103.967817, 30.714916 ] } },
{ "type": "Feature", "properties": { "name": "五月花烹饪学校", "type": "科教文化服务;学校;成人教育", "address": "金辉路与土龙路路口", "lng": 103.967817, "lat": 30.714917, "province": "四川省", "city": "成都市", "district": "金牛区" }, "geometry": { "type": "Point", "coordinates": [ 103.967817, 30.714917 ] } },
{ "type": "Feature", "properties": { "name": "成都师范学院信息科学系五月花教学部", "type": "科教文化服务;学校;高等院校", "address": "源社区五组五月花学校附近", "lng": 103.967817, "lat": 30.714916, "province": "四川省", "city": "成都市", "district": "金牛区" }, "geometry": { "type": "Point", "coordinates": [ 103.967817, 30.714916 ] } },
{ "type": "Feature", "properties": { "name": "成都师范学院电子工程系五月花教学部", "type": "科教文化服务;学校;高等院校", "address": "源社区五组五月花学校附近", "lng": 103.967817, "lat": 30.714917, "province": "四川省", "city": "成都市", "district": "金牛区" }, "geometry": { "type": "Point", "coordinates": [ 103.967817, 30.714917 ] } },
{ "type": "Feature", "properties": { "name": "华西卫校护理", "type": "科教文化服务;科教文化场所;科教文化场所", "address": "土龙路61号", "lng": 103.972454, "lat": 30.713496, "province": "四川省", "city": "成都市", "district": "金牛区" }, "geometry": { "type": "Point", "coordinates": [ 103.972454, 30.713496 ] } },
{ "type": "Feature", "properties": { "name": "成都颖客文化传播有限公司", "type": "科教文化服务;科教文化场所;科教文化场所", "address": "清风路15号", "lng": 103.981943, "lat": 30.707186, "province": "四川省", "city": "成都市", "district": "金牛区" }, "geometry": { "type": "Point", "coordinates": [ 103.981943, 30.707186 ] } },
{ "type": "Feature", "properties": { "name": "瑞河酒店-会议厅", "type": "科教文化服务;会展中心;会展中心", "address": "清淳家园中国小镇A区555号附57号", "lng": 103.97913, "lat": 30.70788, "province": "四川省", "city": "成都市", "district": "金牛区" }, "geometry": { "type": "Point", "coordinates": [ 103.97913, 30.70788 ] } },
{ "type": "Feature", "properties": { "name": "成都市金牛区大拇指幼儿园", "type": "科教文化服务;学校;幼儿园", "address": "清淳家园中国小镇A区155号附39号", "lng": 103.98177, "lat": 30.707636, "province": "四川省", "city": "成都市", "district": "金牛区" }, "geometry": { "type": "Point", "coordinates": [ 103.98177, 30.707636 ] } },
{ "type": "Feature", "properties": { "name": "成都联合汽车学校", "type": "科教文化服务;学校;学校", "address": "两河西一路", "lng": 103.983223, "lat": 30.716432, "province": "四川省", "city": "成都市", "district": "金牛区" }, "geometry": { "type": "Point", "coordinates": [ 103.983223, 30.716432 ] } },
{ "type": "Feature", "properties": { "name": "成都市民道德讲堂", "type": "科教文化服务;培训机构;培训机构", "address": "清淳二街与清风路交叉口西北200米", "lng": 103.980237, "lat": 30.708417, "province": "四川省", "city": "成都市", "district": "金牛区" }, "geometry": { "type": "Point", "coordinates": [ 103.980237, 30.708417 ] } },
{ "type": "Feature", "properties": { "name": "成都汽车商会就业培训中心", "type": "科教文化服务;培训机构;培训机构", "address": "两河二街与两河西一路交叉口西北100米", "lng": 103.983223, "lat": 30.716432, "province": "四川省", "city": "成都市", "district": "金牛区" }, "geometry": { "type": "Point", "coordinates": [ 103.983223, 30.716432 ] } },
{ "type": "Feature", "properties": { "name": "华南师范大学诺贝尔多媒体课程实验基地", "type": "科教文化服务;科教文化场所;科教文化场所", "address": "清风路15号附近", "lng": 103.981778, "lat": 30.707493, "province": "四川省", "city": "成都市", "district": "金牛区" }, "geometry": { "type": "Point", "coordinates": [ 103.981778, 30.707493 ] } },
{ "type": "Feature", "properties": { "name": "成都哈哈文化传播有限公司", "type": "科教文化服务;科教文化场所;科教文化场所", "address": "三泰园区Walnut联合办公区A1楼2楼", "lng": 103.991394, "lat": 30.714488, "province": "四川省", "city": "成都市", "district": "金牛区" }, "geometry": { "type": "Point", "coordinates": [ 103.991394, 30.714488 ] } },
{ "type": "Feature", "properties": { "name": "成都语汇文化传播有限公司", "type": "科教文化服务;科教文化场所;科教文化场所", "address": "兴科路1号四川省水文局5栋6号楼", "lng": 103.988927, "lat": 30.716414, "province": "四川省", "city": "成都市", "district": "金牛区" }, "geometry": { "type": "Point", "coordinates": [ 103.988927, 30.716414 ] } },
{ "type": "Feature", "properties": { "name": "盛大国际启源文化传播有限公司", "type": "科教文化服务;科教文化场所;科教文化场所", "address": "金泉街道蜀西路46号", "lng": 103.990921, "lat": 30.716302, "province": "四川省", "city": "成都市", "district": "金牛区" }, "geometry": { "type": "Point", "coordinates": [ 103.990921, 30.716302 ] } },
{ "type": "Feature", "properties": { "name": "精舞艺术中心", "type": "科教文化服务;培训机构;培训机构", "address": "黄金东一路449号2层", "lng": 103.992717, "lat": 30.708821, "province": "四川省", "city": "成都市", "district": "金牛区" }, "geometry": { "type": "Point", "coordinates": [ 103.992717, 30.708821 ] } },
{ "type": "Feature", "properties": { "name": "金科路小学校", "type": "科教文化服务;学校;小学", "address": "金科苑东街69号", "lng": 103.986523, "lat": 30.708155, "province": "四川省", "city": "成都市", "district": "金牛区" }, "geometry": { "type": "Point", "coordinates": [ 103.986523, 30.708155 ] } },
{ "type": "Feature", "properties": { "name": "金宝宝双语幼儿园(金科苑东街)", "type": "科教文化服务;学校;幼儿园", "address": "金科苑东街17号", "lng": 103.989509, "lat": 30.710561, "province": "四川省", "city": "成都市", "district": "金牛区" }, "geometry": { "type": "Point", "coordinates": [ 103.989509, 30.710561 ] } },
{ "type": "Feature", "properties": { "name": "炼化企业信息化联合实验室", "type": "科教文化服务;科研机构;科研机构", "address": "兴科中路与兴科南路交叉口南200米", "lng": 103.993116, "lat": 30.715765, "province": "四川省", "city": "成都市", "district": "金牛区" }, "geometry": { "type": "Point", "coordinates": [ 103.993116, 30.715765 ] } },
{ "type": "Feature", "properties": { "name": "民族研究所", "type": "科教文化服务;科研机构;科研机构", "address": "黄金路196号", "lng": 103.99353, "lat": 30.711109, "province": "四川省", "city": "成都市", "district": "金牛区" }, "geometry": { "type": "Point", "coordinates": [ 103.99353, 30.711109 ] } },
{ "type": "Feature", "properties": { "name": "艺蒙美术", "type": "科教文化服务;培训机构;培训机构", "address": "云翔金谷1幢3单元6层33号", "lng": 103.994034, "lat": 30.707758, "province": "四川省", "city": "成都市", "district": "金牛区" }, "geometry": { "type": "Point", "coordinates": [ 103.994034, 30.707758 ] } },
{ "type": "Feature", "properties": { "name": "艾比斯国际英语", "type": "科教文化服务;培训机构;培训机构", "address": "蜀西南三路白鸽岛尚9幢2单元202", "lng": 103.995545, "lat": 30.708799, "province": "四川省", "city": "成都市", "district": "金牛区" }, "geometry": { "type": "Point", "coordinates": [ 103.995545, 30.708799 ] } },
{ "type": "Feature", "properties": { "name": "望子成龙学校(高家庄校区)", "type": "科教文化服务;培训机构;培训机构", "address": "黄金路222号万裕生活广场4层", "lng": 103.993262, "lat": 30.708973, "province": "四川省", "city": "成都市", "district": "金牛区" }, "geometry": { "type": "Point", "coordinates": [ 103.993262, 30.708973 ] } },
{ "type": "Feature", "properties": { "name": "佳音英语(羊犀分校)", "type": "科教文化服务;培训机构;培训机构", "address": "黄金东一路431号", "lng": 103.992995, "lat": 30.708591, "province": "四川省", "city": "成都市", "district": "金牛区" }, "geometry": { "type": "Point", "coordinates": [ 103.992995, 30.708591 ] } },
{ "type": "Feature", "properties": { "name": "三都博物馆", "type": "科教文化服务;博物馆;博物馆", "address": "迎宾大道418号", "lng": 104.004704, "lat": 30.709062, "province": "四川省", "city": "成都市", "district": "金牛区" }, "geometry": { "type": "Point", "coordinates": [ 104.004704, 30.709062 ] } },
{ "type": "Feature", "properties": { "name": "雅风(当代艺术)画廊", "type": "科教文化服务;科教文化场所;科教文化场所", "address": "迎宾大道兴盛东路2号", "lng": 104.003005, "lat": 30.709218, "province": "四川省", "city": "成都市", "district": "金牛区" }, "geometry": { "type": "Point", "coordinates": [ 104.003005, 30.709218 ] } },
{ "type": "Feature", "properties": { "name": "金妞妞幼儿园", "type": "科教文化服务;学校;幼儿园", "address": "迎宾大道近郊民居", "lng": 104.003571, "lat": 30.710759, "province": "四川省", "city": "成都市", "district": "金牛区" }, "geometry": { "type": "Point", "coordinates": [ 104.003571, 30.710759 ] } },
{ "type": "Feature", "properties": { "name": "消防时代杂志社", "type": "科教文化服务;传媒机构;杂志社", "address": "金科南路38号IP科技中心2栋8层", "lng": 103.997761, "lat": 30.714538, "province": "四川省", "city": "成都市", "district": "金牛区" }, "geometry": { "type": "Point", "coordinates": [ 103.997761, 30.714538 ] } },
{ "type": "Feature", "properties": { "name": "郦湾国际酒店-会议厅", "type": "科教文化服务;会展中心;会展中心", "address": "迎宾大道兴盛西路8号郦湾国际酒店", "lng": 103.99892, "lat": 30.712999, "province": "四川省", "city": "成都市", "district": "金牛区" }, "geometry": { "type": "Point", "coordinates": [ 103.99892, 30.712999 ] } },
{ "type": "Feature", "properties": { "name": "斯坦福幼儿园", "type": "科教文化服务;学校;幼儿园", "address": "蜀西路37号附近", "lng": 103.999238, "lat": 30.70716, "province": "四川省", "city": "成都市", "district": "金牛区" }, "geometry": { "type": "Point", "coordinates": [ 103.999238, 30.70716 ] } },
{ "type": "Feature", "properties": { "name": "公安部四川消防研究所(金科南路)", "type": "科教文化服务;科研机构;科研机构", "address": "金科南路69号", "lng": 103.997896, "lat": 30.715861, "province": "四川省", "city": "成都市", "district": "金牛区" }, "geometry": { "type": "Point", "coordinates": [ 103.997896, 30.715861 ] } },
{ "type": "Feature", "properties": { "name": "戴氏精品堂学校迎宾总校", "type": "科教文化服务;科教文化场所;科教文化场所", "address": "迎宾大道兴盛西路固特大厦3栋A区9楼908室", "lng": 104.000243, "lat": 30.711864, "province": "四川省", "city": "成都市", "district": "金牛区" }, "geometry": { "type": "Point", "coordinates": [ 104.000243, 30.711864 ] } },
{ "type": "Feature", "properties": { "name": "信丰县文化艺术中心", "type": "科教文化服务;美术馆;美术馆", "address": "迎宾大道18号", "lng": 104.005381, "lat": 30.709458, "province": "四川省", "city": "成都市", "district": "金牛区" }, "geometry": { "type": "Point", "coordinates": [ 104.005381, 30.709458 ] } },
{ "type": "Feature", "properties": { "name": "不言文化传播有限公司", "type": "科教文化服务;科教文化场所;科教文化场所", "address": "西华街道茶店子金耀路18号益州蓉苑小区4栋11层", "lng": 104.01393, "lat": 30.707257, "province": "四川省", "city": "成都市", "district": "金牛区" }, "geometry": { "type": "Point", "coordinates": [ 104.01393, 30.707257 ] } },
{ "type": "Feature", "properties": { "name": "成都九鱼文化传媒有限公司", "type": "科教文化服务;传媒机构;传媒机构", "address": "振兴路22号高校毕业生创业园1幢320号", "lng": 104.012433, "lat": 30.714171, "province": "四川省", "city": "成都市", "district": "金牛区" }, "geometry": { "type": "Point", "coordinates": [ 104.012433, 30.714171 ] } },
{ "type": "Feature", "properties": { "name": "成都比杨文化传播有限公司", "type": "科教文化服务;科教文化场所;科教文化场所", "address": "迎宾大道振兴路99号艾普中心B座9楼5-7号", "lng": 104.009549, "lat": 30.714808, "province": "四川省", "city": "成都市", "district": "金牛区" }, "geometry": { "type": "Point", "coordinates": [ 104.009549, 30.714808 ] } },
{ "type": "Feature", "properties": { "name": "成都中视三立文化传播有限公司", "type": "科教文化服务;科教文化场所;科教文化场所", "address": "二环路南三段1号祥福苑大厦东楼1101", "lng": 104.011469, "lat": 30.713846, "province": "四川省", "city": "成都市", "district": "金牛区" }, "geometry": { "type": "Point", "coordinates": [ 104.011469, 30.713846 ] } },
{ "type": "Feature", "properties": { "name": "四川嘉申光年文化传播有限公司", "type": "科教文化服务;传媒机构;传媒机构", "address": "迎宾大道振兴路22号蓝海天地1栋311", "lng": 104.012397, "lat": 30.714272, "province": "四川省", "city": "成都市", "district": "金牛区" }, "geometry": { "type": "Point", "coordinates": [ 104.012397, 30.714272 ] } },
{ "type": "Feature", "properties": { "name": "金茜贝尔亲子幼儿园", "type": "科教文化服务;学校;幼儿园", "address": "迎宾大道333号", "lng": 104.007722, "lat": 30.709303, "province": "四川省", "city": "成都市", "district": "金牛区" }, "geometry": { "type": "Point", "coordinates": [ 104.007722, 30.709303 ] } },
{ "type": "Feature", "properties": { "name": "赋舸学院", "type": "科教文化服务;学校;高等院校", "address": "迎宾大道振兴路22号蓝海天地2栋E座410", "lng": 104.012095, "lat": 30.714632, "province": "四川省", "city": "成都市", "district": "金牛区" }, "geometry": { "type": "Point", "coordinates": [ 104.012095, 30.714632 ] } },
{ "type": "Feature", "properties": { "name": "迎宾一号-会议厅", "type": "科教文化服务;会展中心;会展中心", "address": "金科东路38号迎宾一号", "lng": 104.00768, "lat": 30.71254, "province": "四川省", "city": "成都市", "district": "金牛区" }, "geometry": { "type": "Point", "coordinates": [ 104.00768, 30.71254 ] } },
{ "type": "Feature", "properties": { "name": "焙多芬烘培艺术馆", "type": "科教文化服务;美术馆;美术馆", "address": "迎宾大道振兴路22号", "lng": 104.011469, "lat": 30.713846, "province": "四川省", "city": "成都市", "district": "金牛区" }, "geometry": { "type": "Point", "coordinates": [ 104.011469, 30.713846 ] } },
{ "type": "Feature", "properties": { "name": "成都新东方烹饪学校金牛宾馆营销办公室", "type": "科教文化服务;学校;学校", "address": "金泉路2号", "lng": 104.016015, "lat": 30.715595, "province": "四川省", "city": "成都市", "district": "金牛区" }, "geometry": { "type": "Point", "coordinates": [ 104.016015, 30.715595 ] } },
{ "type": "Feature", "properties": { "name": "成都八八空间艺术学校(迎宾校区)", "type": "科教文化服务;学校;职业技术学校", "address": "迎宾大道123号恒大西锦城3F", "lng": 104.011323, "lat": 30.710757, "province": "四川省", "city": "成都市", "district": "金牛区" }, "geometry": { "type": "Point", "coordinates": [ 104.011323, 30.710757 ] } },
{ "type": "Feature", "properties": { "name": "贝乐机器人", "type": "科教文化服务;科教文化场所;科教文化场所", "address": "金泉街道迎宾大道艾普中心B栋9楼", "lng": 104.009353, "lat": 30.714464, "province": "四川省", "city": "成都市", "district": "金牛区" }, "geometry": { "type": "Point", "coordinates": [ 104.009353, 30.714464 ] } },
{ "type": "Feature", "properties": { "name": "成都市民道德讲堂(振兴西一路)", "type": "科教文化服务;科教文化场所;科教文化场所", "address": "金科东路38号", "lng": 104.00761, "lat": 30.712415, "province": "四川省", "city": "成都市", "district": "金牛区" }, "geometry": { "type": "Point", "coordinates": [ 104.00761, 30.712415 ] } },
{ "type": "Feature", "properties": { "name": "瑞思学科英语(迎宾校区)", "type": "科教文化服务;培训机构;培训机构", "address": "迎宾大道123号恒大·西锦城", "lng": 104.01093, "lat": 30.71057, "province": "四川省", "city": "成都市", "district": "金牛区" }, "geometry": { "type": "Point", "coordinates": [ 104.01093, 30.71057 ] } },
{ "type": "Feature", "properties": { "name": "众源文化传播有限公司", "type": "科教文化服务;传媒机构;传媒机构", "address": "众源路1号", "lng": 104.025833, "lat": 30.712504, "province": "四川省", "city": "成都市", "district": "金牛区" }, "geometry": { "type": "Point", "coordinates": [ 104.025833, 30.712504 ] } },
{ "type": "Feature", "properties": { "name": "金桥高级艺术小学", "type": "科教文化服务;学校;小学", "address": "三环路金牛立交跃进村", "lng": 104.021852, "lat": 30.708521, "province": "四川省", "city": "成都市", "district": "金牛区" }, "geometry": { "type": "Point", "coordinates": [ 104.021852, 30.708521 ] } },
{ "type": "Feature", "properties": { "name": "成都市英才学校(跃进校区)", "type": "科教文化服务;学校;中学", "address": "西华街办跃进社区8组84号", "lng": 104.023364, "lat": 30.712684, "province": "四川省", "city": "成都市", "district": "金牛区" }, "geometry": { "type": "Point", "coordinates": [ 104.023364, 30.712684 ] } },